City_ID,City,Lat,Lng,Max Temp,Humidity,Cloudiness,Wind Speed,Country,Date
0,port elizabeth,-33.918,25.5701,18.51,83,0,2.57,ZA,1734486625
1,hawaiian paradise park,19.5933,-154.9731,27.15,82,75,5.66,US,1734486793
2,sao jose da coroa grande,-8.8978,-35.1478,26.36,81,98,2.94,BR,1734486749
3,ghanzi,-21.5667,21.7833,22.65,69,100,3.89,BW,1734486797
4,qaqortoq,60.7167,-46.0333,-8.86,74,100,3.74,GL,1734486799
5,hasaki,35.7333,140.8333,10.16,52,1,4.96,JP,1734486800
6,port-aux-francais,-49.35,70.2167,5.7,84,68,12.92,TF,1734486802
7,atafu village,-8.5421,-172.5159,26.54,84,100,7.36,TK,1734486803
8,grytviken,-54.2811,-36.5092,-0.46,84,20,5.23,GS,1734486805
9,bilibino,68.0546,166.4372,-25.28,100,100,1.48,RU,1734486806
10,saipan,15.1355,145.701,31.39,82,40,8.75,MP,1734486808
11,bredasdorp,-34.5322,20.0403,14.56,71,63,1.69,ZA,1734486809
12,leua,48.2156,18.6071,4.03,90,50,1.06,SK,1734486810
13,udaipur,24.5712,73.6918,7.5,34,0,1.79,IN,1734486812
14,haverhill,42.7762,-71.0773,8.51,71,0,3.09,US,1734486751
15,waitangi,-43.9535,-176.5597,14.9,93,100,3.58,NZ,1734486817
16,anadyr,64.75,177.4833,-11.72,79,75,9.0,RU,1734486818
17,newman,37.3138,-121.0208,8.92,94,73,1.52,US,1734486822
18,college,64.8569,-147.8028,-16.42,78,75,0.0,US,1734486824
19,leava,-14.3,-178.1667,28.33,73,94,3.87,WF,1734486825
20,blackmans bay,-43.0167,147.3167,21.4,46,0,2.24,AU,1734486826
21,albany,42.6001,-73.9662,5.36,73,21,0.45,US,1734486684
22,alakurtti,66.9672,30.3491,-20.21,98,37,1.68,RU,1734486829
23,yellowknife,62.456,-114.3525,-30.88,90,0,2.57,CA,1734486780
24,shenjiamen,29.9576,122.298,9.96,58,79,8.41,CN,1734486832
25,iqaluit,63.7506,-68.5145,-23.15,59,75,2.57,CA,1734486835
26,greymouth,-42.4667,171.2,18.4,58,0,3.8,NZ,1734486836
27,nuuk,64.1835,-51.7216,-3.66,68,100,19.55,GL,1734486838
28,talnakh,69.4865,88.3972,-13.81,93,100,8.05,RU,1734486842
29,meizhou,24.2977,116.1072,15.51,28,0,1.87,CN,1734486845
30,ust-nera,64.5667,143.2,-30.02,97,100,0.5,RU,1734486847
31,karasburg,-28.0167,18.75,17.33,18,3,2.09,NA,1734486850
32,olyokminsk,60.3736,120.4264,-22.01,97,7,2.52,RU,1734486851
33,fortuna,40.5982,-124.1573,14.4,78,0,6.17,US,1734486853
34,adamstown,-25.066,-130.1015,21.63,64,1,5.61,PN,1734486855
35,constantia,44.1833,28.65,3.38,79,0,5.15,RO,1734486856
36,bethel,41.3712,-73.414,9.46,69,100,0.45,US,1734486628
37,pangai,-19.8,-174.35,29.06,65,40,4.12,TO,1734486859
38,isangel,-19.55,169.2667,27.64,76,94,3.54,VU,1734486861
39,natal,-5.795,-35.2094,27.12,78,20,4.12,BR,1734486407
40,toliara,-23.35,43.6667,24.49,76,22,3.61,MG,1734486864
41,chengdu,30.6667,104.0667,4.94,93,0,1.0,CN,1734486866
42,kodiak,57.79,-152.4072,4.73,93,75,4.63,US,1734486774
43,touros,-5.1989,-35.4608,26.2,81,100,4.82,BR,1734486869
44,selfoss,63.9331,-20.9971,-1.09,94,76,2.39,IS,1734486871
45,tsiombe,-25.3,45.4833,22.88,87,100,1.13,MG,1734486872
46,extrema,-22.8547,-46.3183,15.91,96,46,1.94,BR,1734486874
47,labrador city,52.9463,-66.9114,-0.46,86,100,5.66,CA,1734486875
48,iskateley,67.6803,53.1512,-19.26,82,24,4.06,RU,1734486877
49,puerto baquerizo moreno,-0.9,-89.6,22.61,85,40,3.6,EC,1734486879
50,punta arenas,-53.15,-70.9167,9.06,61,20,9.26,CL,1734486883
51,kone,-21.0595,164.8658,30.59,62,100,1.38,NC,1734486884
52,la'ie,21.6477,-157.9253,28.92,71,0,1.34,US,1734486886
53,tiksi,71.6872,128.8694,-18.33,86,100,4.68,RU,1734486887
54,laojunmiao,39.8333,97.7333,-11.69,64,100,0.79,CN,1734486373
55,puerto ayora,-0.7393,-90.3518,22.54,84,10,3.1,EC,1734486890
56,poronaysk,49.2167,143.1167,-8.59,76,100,1.6,RU,1734486892
57,drayton valley,53.2168,-114.9854,-24.75,99,44,1.76,CA,1734486605
58,walvis bay,-22.9575,14.5053,13.35,90,0,2.66,NA,1734486895
59,arraial do cabo,-22.9661,-42.0278,23.49,86,50,4.27,BR,1734486896
60,puerto natales,-51.7236,-72.4875,7.25,81,40,9.77,CL,1734486898
61,longyearbyen,78.2186,15.6401,-11.09,79,20,5.14,SJ,1734486900
62,maralal,1.0968,36.698,13.24,83,69,1.7,KE,1734486726
63,codrington,-38.2667,141.9667,18.17,52,0,5.74,AU,1734486903
64,tazovsky,67.4667,78.7,-8.99,94,100,5.41,RU,1734486904
65,canico,32.6333,-16.85,20.35,83,20,7.72,PT,1734486905
66,cole harbour,44.6724,-63.4751,7.74,95,100,4.63,CA,1734486907
67,papao,-17.75,-149.55,29.82,72,30,1.91,PF,1734486909
68,karaton,-6.3424,106.1045,27.6,76,46,2.71,ID,1734486911
69,utrik,11.2278,169.8474,27.17,77,51,11.12,MH,1734486912
70,invercargill,-46.4,168.35,21.75,35,100,4.02,NZ,1734486642
71,stulpicani,47.4667,25.7667,2.41,89,35,2.5,RO,1734486916
72,whitehorse,60.7161,-135.0538,-18.57,77,20,5.66,CA,1734486917
73,badger,64.8,-147.5333,-16.47,77,75,0.0,US,1734486920
74,antsiranana,-12.2787,49.2917,24.05,82,95,5.47,MG,1734486922
75,petropavlovsk-kamchatsky,53.0452,158.6483,0.33,60,75,8.0,RU,1734486637
76,ciudad bolivar,8.1222,-63.5497,27.3,72,28,5.91,VE,1734486925
77,el nido,11.1858,119.3956,26.75,91,100,5.35,PH,1734486927
78,tobelo,1.7284,128.0095,29.13,68,99,2.24,ID,1734486699
79,krasnokamensk,50.0979,118.0369,-17.18,74,100,1.03,RU,1734486722
80,mejit,10.2753,170.8646,27.34,81,12,10.73,MH,1734486935
81,hamilton,39.1834,-84.5333,6.54,75,0,0.89,US,1734486936
82,udachny,66.4167,112.4,-32.74,95,10,2.36,RU,1734486938
83,kununurra,-15.7667,128.7333,28.99,79,99,1.03,AU,1734486769
84,qingyuan,23.7,113.0333,15.73,39,0,3.78,CN,1734486940
85,happy valley-goose bay,53.3168,-60.3315,2.17,87,100,5.14,CA,1734486942
86,valparaiso,-33.0393,-71.6273,15.8,77,0,2.57,CL,1734486945
87,montepuez,-13.1256,38.9997,21.98,87,99,2.62,MZ,1734486946
88,kurchatov,51.6601,35.6521,0.33,92,100,9.48,RU,1734486950
89,malanje,-9.5402,16.341,17.83,99,100,1.26,AO,1734486952
90,edinburgh of the seven seas,-37.0676,-12.3116,17.16,96,92,12.78,SH,1734486954
91,upington,-28.4478,21.2561,19.21,20,0,2.57,ZA,1734486955
92,datong,40.0936,113.2914,-10.05,49,0,1.91,CN,1734486957
93,al badari,26.9926,31.4155,13.07,69,100,4.16,EG,1734486958
94,pimentel,-6.8367,-79.9342,21.16,78,0,7.2,PE,1734486960
95,chonchi,-42.6128,-73.8092,14.51,89,100,0.94,CL,1734486962
96,okhotsk,59.3833,143.3,-19.45,80,100,8.21,RU,1734486442
97,vila velha,-20.3297,-40.2925,23.97,95,100,4.47,BR,1734486966
98,beyneu,45.3167,55.2,-0.55,91,83,4.85,KZ,1734486967
99,lake sebu,6.22,124.6936,25.11,79,61,0.78,PH,1734486969
100,badiyah,22.45,58.8,16.79,65,0,1.24,OM,1734486970
101,kraljevo,43.7258,20.6894,0.0,100,0,0.51,RS,1734486972
102,isafjordur,66.0755,-23.124,-5.05,93,78,1.12,IS,1734486975
103,mosjoen,65.836,13.1908,-7.71,93,100,1.03,NO,1734486977
104,taulaga,-11.0553,-171.0883,27.87,80,100,6.82,AS,1734486978
105,uturoa,-16.7333,-151.4333,27.43,69,100,2.2,PF,1734486980
106,amga,60.8953,131.9608,-21.92,96,100,2.35,RU,1734486981
107,zinjibar,13.1287,45.3807,23.1,54,6,3.28,YE,1734486983
108,zaozersk,69.4005,32.4476,-17.94,87,100,2.67,RU,1734486459
109,umm kaddadah,13.6017,26.6876,19.39,38,100,6.6,SD,1734486986
110,valuyki,50.2035,38.1067,0.99,81,97,8.71,RU,1734486988
111,port mathurin,-19.6833,63.4167,25.41,72,72,9.04,MU,1734486989
112,bandraboua,-12.7044,45.1223,25.82,77,96,0.85,YT,1734486992
113,papatowai,-46.5619,169.4708,20.71,48,100,4.69,NZ,1734486994
114,rio grande,-32.035,-52.0986,18.79,73,0,4.98,BR,1734486995
115,olonkinbyen,70.9221,-8.7187,-2.33,86,100,9.15,SJ,1734486997
116,hithadhoo,-0.6,73.0833,27.48,80,63,6.29,MV,1734486998
117,aljezur,37.3191,-8.8033,13.51,94,100,4.56,PT,1734486999
118,czestochowa,50.7965,19.1241,6.66,84,100,4.57,PL,1734487001
119,ilulissat,69.2167,-51.1,-8.99,62,100,8.23,GL,1734487002
120,jamestown,42.097,-79.2353,2.79,87,100,3.09,US,1734486852
121,flying fish cove,-10.4217,105.6791,28.82,78,20,2.06,CX,1734487006
122,luwingu,-10.2621,29.9271,16.58,99,100,1.08,ZM,1734487007
123,devils lake,48.1128,-98.8651,-8.01,86,100,2.06,US,1734487010
124,boa vista,2.8197,-60.6733,25.99,83,20,1.54,BR,1734486952
125,malvan,16.0667,73.4667,21.42,39,64,2.29,IN,1734487013
126,sinop,41.7711,34.8709,1.59,85,5,4.64,TR,1734486623
127,yalutorovsk,56.6536,66.3006,-9.76,92,100,4.8,RU,1734487017
128,fort st. john,56.2499,-120.8529,-22.06,77,100,3.09,CA,1734486794
129,tofol,5.3248,163.0078,27.88,89,100,6.17,FM,1734487023
130,priob'ye,62.5206,65.5964,-11.45,97,100,2.67,RU,1734487024
131,mount isa,-20.7333,139.5,38.87,24,8,7.2,AU,1734486767
132,port lincoln,-34.7333,135.8667,18.88,60,11,6.51,AU,1734487027
133,sydney,-33.8679,151.2073,22.42,64,75,13.38,AU,1734486931
134,hotan,37.0997,79.9269,-8.85,68,1,0.82,CN,1734487030
135,ushuaia,-54.8,-68.3,8.81,57,40,1.54,AR,1734486894
136,stanley,54.868,-1.6985,11.01,90,75,7.72,GB,1734487034
137,cam ranh,11.9214,109.1591,26.98,65,75,7.72,VN,1734487036
138,avarua,-21.2078,-159.775,27.03,94,100,4.12,CK,1734486985
139,shingu,33.7333,135.9833,9.97,43,100,3.61,JP,1734487040
140,la passe,45.5549,-0.8967,8.39,66,70,4.17,FR,1734487041
141,dambatta,12.433,8.5154,13.82,25,100,3.67,NG,1734487044
142,lebu,-37.6167,-73.65,13.36,86,3,7.41,CL,1734487045
143,kerch,45.3583,36.4758,8.26,76,70,11.54,UA,1734487047
144,san cristobal verapaz,15.3833,-90.4,13.64,100,38,0.87,GT,1734487048
145,klyuchi,52.2667,79.1667,-11.43,77,100,6.87,RU,1734487050
146,huarmey,-10.0681,-78.1522,19.88,86,96,3.62,PE,1734487051
147,diamantino,-14.4086,-56.4461,22.11,94,100,1.41,BR,1734487052
148,tolanaro,-25.0319,46.9987,23.04,94,0,0.0,MG,1734487054
149,west island,-12.1568,96.8225,28.99,79,5,4.12,CC,1734487055
150,miyaly,48.8844,53.7836,-2.38,95,55,6.11,KZ,1734487057
151,alofi,-19.0595,-169.9187,28.94,74,75,4.12,NU,1734487059
152,trenton,40.217,-74.7429,9.64,72,1,1.89,US,1734486930
153,mbekenyera,-10.0,38.9833,22.49,88,71,0.92,TZ,1734487064
154,ribeira grande,38.5167,-28.7,17.1,80,78,8.94,PT,1734487066
155,namibe,-15.1961,12.1522,21.68,75,100,3.35,AO,1734487067
156,thompson,55.7435,-97.8558,-22.91,77,0,2.57,CA,1734487069
157,naze,28.3667,129.4833,15.51,53,43,4.43,JP,1734487071
158,altamont,42.2068,-121.7372,4.91,87,0,6.69,US,1734487074
159,kashgar,39.4547,75.9797,-4.44,74,100,2.0,CN,1734487075
160,san antonio de pale,-1.4014,5.6325,26.6,81,78,2.52,GQ,1734487077
161,castillos,-34.1667,-53.8333,15.3,91,4,2.25,UY,1734487079
162,ixtapa,20.7,-105.2,20.33,89,6,0.67,MX,1734487081
163,yuzhno-kurilsk,44.0306,145.8556,-2.17,48,100,7.51,RU,1734487082
164,new norfolk,-42.7826,147.0587,22.06,29,0,3.12,AU,1734487084
165,alice springs,-23.7,133.8833,33.75,17,8,6.17,AU,1734487085
166,aleysk,52.4926,82.7822,-24.36,96,20,1.27,RU,1734487087
167,crane,31.3974,-102.3501,16.29,46,0,5.72,US,1734487088
168,santo antonio do ica,-3.1022,-67.9397,22.83,99,98,0.57,BR,1734487090
169,enewetak,11.3474,162.3373,27.36,79,66,11.69,MH,1734487091
170,tevriz,57.509,72.4042,-11.26,90,99,3.64,RU,1734487093
171,hajdudorog,47.8167,21.5,3.4,91,5,3.0,HU,1734487095
172,katsuura,35.1333,140.3,11.8,54,28,4.05,JP,1734487096
173,aasiaat,68.7098,-52.8699,-14.57,89,95,2.9,GL,1734486814
174,luena,-11.7833,19.9167,15.82,97,100,1.63,AO,1734487099
175,san patricio,28.017,-97.5169,22.18,81,29,3.89,US,1734487102
176,keflavik,64.0049,-22.5624,-0.76,100,75,4.12,IS,1734487103
177,taki,22.5861,88.9214,18.58,49,100,2.37,IN,1734487105
178,okha,53.5739,142.9478,-6.58,77,100,9.74,RU,1734487107
179,mata-utu,-13.2816,-176.1745,28.51,75,96,5.11,WF,1734487108
180,port alfred,-33.5906,26.891,17.32,99,92,2.21,ZA,1734487110
181,ta`u,-14.2336,-169.5144,28.24,78,100,7.32,AS,1734487112
182,aykhal,66.0,111.5,-30.04,99,9,2.72,RU,1734487113
183,yelizovo,53.1873,158.3805,1.08,60,75,8.0,RU,1734487116
184,arawa,-6.2132,155.5367,31.33,65,65,1.09,PG,1734487118
185,lumut,4.2323,100.6298,27.01,83,20,1.03,MY,1734487120
186,letlhakane,-21.4167,25.5833,25.65,57,98,3.25,BW,1734487122
187,lihue,21.9789,-159.3672,28.19,74,0,6.69,US,1734487123
188,east london,-33.0153,27.9116,18.88,90,99,2.49,ZA,1734487125
189,griffith,41.5284,-87.4237,-0.03,91,0,0.0,US,1734487126
190,cabo san lucas,22.8909,-109.9124,22.09,72,74,1.91,MX,1734487128
191,pangody,65.85,74.4859,-17.9,99,75,3.45,RU,1734487129
192,alvaraes,-3.2208,-64.8042,23.7,98,100,0.65,BR,1734487131
193,mazowe,-17.504,30.9739,20.32,95,100,1.99,ZW,1734487132
194,port saint john's,-31.6229,29.5448,20.68,91,100,1.86,ZA,1734487135
195,jaciara,-15.9653,-54.9683,22.74,92,100,1.36,BR,1734487136
196,afaahiti,-17.75,-149.2833,26.35,72,85,1.54,PF,1734487138
197,mount gambier,-37.8333,140.7667,20.87,40,0,4.24,AU,1734487139
198,lulea,65.5842,22.1547,-13.96,85,100,2.06,SE,1734487141
199,viedma,-40.8135,-62.9967,20.55,50,57,5.6,AR,1734486428
200,safotu,-13.4513,-172.4018,28.24,83,100,8.52,WS,1734487144
201,impfondo,1.6381,18.0667,22.76,78,100,0.97,CG,1734487146
202,erenhot,43.6475,111.9767,-10.19,47,10,1.14,CN,1734487148
203,portland,45.5234,-122.6762,12.97,94,100,8.05,US,1734486930
204,niafunke,15.9322,-3.9906,19.27,16,6,5.13,ML,1734487151
205,moranbah,-22.0016,148.0466,32.09,45,55,4.43,AU,1734487153
206,sinabang,2.4803,96.3801,27.23,82,76,1.65,ID,1734487154
207,bhavnagar,21.7667,72.15,17.82,29,7,4.27,IN,1734487156
208,vokhtoga,58.8147,41.0461,-8.31,94,100,4.35,RU,1734487158
209,pont rouge,48.8833,-72.0825,1.46,83,99,5.37,CA,1734487159
210,nizhneangarsk,55.7833,109.55,-13.27,73,95,3.27,RU,1734487161
211,olney,39.1532,-77.0669,9.1,79,0,3.0,US,1734487164
212,tahe,52.3333,124.7333,-10.83,79,100,2.3,CN,1734487167
213,san fernando de apure,7.8878,-67.4724,27.71,59,91,1.78,VE,1734487168
214,langzhong,31.5504,105.9938,7.89,70,46,0.69,CN,1734487170
215,al wafrah,28.6392,47.9306,8.68,18,0,4.94,KW,1734487172
216,fuyu,45.1833,124.8167,-14.86,77,6,1.92,CN,1734487173
217,suksun,57.1431,57.3949,-4.89,95,100,5.97,RU,1734487176
218,kulhudhuffushi,6.6221,73.07,27.33,77,12,2.28,MV,1734487178
219,saint-philippe,-21.3585,55.7679,24.63,78,46,4.32,RE,1734487180
220,acarau,-2.8856,-40.12,26.69,81,30,7.35,BR,1734487181
221,waingapu,-9.6567,120.2641,30.78,66,100,3.1,ID,1734487183
222,khark,29.2614,50.3306,16.94,43,0,8.74,IR,1734487185
223,beolgyo,34.8449,127.3429,2.64,52,6,4.16,KR,1734487186
224,itoman,26.1247,127.6694,20.01,64,75,7.72,JP,1734487191
225,qusmuryn,52.4503,64.6311,-5.91,95,100,8.06,KZ,1734487194
226,mar del plata,-38.0023,-57.5575,18.94,90,0,4.63,AR,1734486692
227,broken hill,-31.95,141.4333,25.38,17,0,9.17,AU,1734487079
228,preobrazheniye,42.9019,133.9064,-9.41,38,11,3.61,RU,1734487198
229,kharupatia,26.5167,92.1333,14.93,56,0,3.62,IN,1734487200
230,ola,59.5833,151.2833,-11.08,81,100,5.98,RU,1734487201
231,necocli,8.4234,-76.786,25.37,94,98,1.73,CO,1734487203
232,nabire,-3.3667,135.4833,28.45,75,100,0.7,ID,1734487204
233,lata,40.1629,-8.3327,9.15,76,33,2.19,PT,1734487207
234,bubaque,11.2833,-15.8333,26.13,70,41,3.36,GW,1734487208
235,maitum,6.0392,124.4986,28.99,72,70,2.62,PH,1734487210
236,batangafo,7.3008,18.2833,19.92,25,56,1.99,CF,1734487211
237,bardai,11.65,7.2333,13.52,20,88,4.57,NG,1734487213
238,wailua homesteads,22.0669,-159.378,27.85,70,1,0.45,US,1734487215
239,la mana,-0.9333,-79.2167,23.94,86,100,1.26,EC,1734487217
240,spring creek,40.7266,-115.5859,1.6,74,93,1.92,US,1734487018
241,sanctuary point,-35.1114,150.629,20.36,48,11,7.25,AU,1734487220
242,tiruchchendur,8.4833,78.1167,25.16,74,100,0.78,IN,1734487224
243,gebeit,21.0667,36.3167,16.0,88,27,2.43,SD,1734487226
244,kabalo,-6.05,26.9167,20.02,99,100,0.49,CD,1734487228
245,remire-montjoly,4.9167,-52.2667,23.02,100,100,0.0,GF,1734487229
246,lorengau,-2.0226,147.2712,28.88,81,92,6.23,PG,1734487231
247,porto novo,6.4965,2.6036,26.9,77,3,1.51,BJ,1734487233
248,zemio,5.0314,25.1361,25.32,38,82,1.55,CF,1734487235
249,la sarre,48.8002,-79.1996,-5.06,92,99,3.88,CA,1734487236
250,cabedelo,-6.9811,-34.8339,27.37,80,99,3.34,BR,1734487239
251,lepsy,46.235,78.9456,-11.32,83,19,2.54,KZ,1734487240
252,matthew town,20.95,-73.6667,25.41,86,47,7.66,BS,1734487243
253,kagoro,9.6,8.3833,17.59,18,100,2.74,NG,1734487245
254,san sebastian de la gomera,28.0916,-17.1133,22.2,26,0,6.69,ES,1734487246
255,mermoz boabab,14.7065,-17.4758,24.92,45,100,8.08,SN,1734487248
256,tanjung selor,2.8372,117.3642,24.09,99,100,0.89,ID,1734487250
257,hovd,48.0056,91.6419,-20.1,77,9,2.33,MN,1734487251
258,hermanus,-34.4187,19.2345,15.6,71,50,1.09,ZA,1734487254
259,swift current,50.2834,-107.8014,-17.55,78,100,4.63,CA,1734487055
260,birao,10.2849,22.7882,21.15,31,78,2.14,CF,1734487257
261,grantsville,40.5999,-112.4644,2.38,70,0,4.02,US,1734487019
262,yakutsk,62.0339,129.7331,-32.02,75,100,1.0,RU,1734487262
263,khandyga,62.6667,135.6,-33.54,98,99,0.31,RU,1734487265
264,buala,-8.145,159.5921,29.78,72,99,0.82,SB,1734487267
265,moab,38.5733,-109.5498,6.94,41,93,0.7,US,1734487269
266,nadi,-17.8,177.4167,30.0,62,40,5.14,FJ,1734487271
267,saldanha,-33.0117,17.9442,16.35,77,7,7.01,ZA,1734487243
268,grand falls-windsor,48.9332,-55.6649,5.07,88,100,9.78,CA,1734487275
269,maroantsetra,-15.4333,49.7333,23.09,88,100,0.7,MG,1734487276
270,al jawf,29.5,38.75,8.04,23,100,3.14,SA,1734487277
271,inari,68.906,27.0288,-22.62,100,28,1.58,FI,1734487279
272,ipu,-4.3222,-40.7108,23.48,72,84,3.98,BR,1734487280
273,inirida,3.8653,-67.9239,24.72,88,70,0.81,CO,1734487206
274,esqueda,30.7167,-109.5833,12.13,39,51,1.12,MX,1734487284
275,faya-largeau,17.9257,19.1043,16.8,27,97,8.04,TD,1734487285
276,el calafate,-50.3408,-72.2768,8.91,55,4,6.25,AR,1734487288
277,banda aceh,5.5577,95.3222,27.64,77,100,4.02,ID,1734487290
278,sarov,54.9358,43.3235,-11.33,90,100,4.57,RU,1734487293
279,malango,-2.9627,119.9001,27.3,63,71,2.04,ID,1734487295
280,vila franca do campo,37.7167,-25.4333,18.27,99,100,9.3,PT,1734487297
281,fale old settlement,-9.3852,-171.2468,27.1,83,100,7.26,TK,1734487298
282,khangah dogran,31.8317,73.6231,8.26,26,17,1.78,PK,1734487300
283,puerto colombia,10.9878,-74.9547,28.05,85,59,9.14,CO,1734487301
284,colonia,50.9333,6.95,7.2,87,0,5.66,DE,1734487167
285,beaufort west,-32.3567,22.583,13.31,80,50,4.09,ZA,1734487304
286,bela,25.9333,81.9833,12.59,43,1,1.27,IN,1734487306
287,taroa,8.7058,171.2275,27.43,81,34,11.21,MH,1734487308
288,nova xavantina,-14.6667,-52.35,22.37,95,100,0.43,BR,1734487310
289,kerikeri,-35.2268,173.9474,24.95,50,2,1.34,NZ,1734487311
290,ust'-kulom,61.6864,53.6902,-8.24,95,100,3.38,RU,1734487313
291,vadso,70.0744,29.7487,-13.91,78,100,5.66,NO,1734487315
292,visby,57.6409,18.296,3.23,81,100,3.09,SE,1734487317
293,severodvinsk,64.5635,39.8302,-14.8,93,100,2.29,RU,1734487318
294,childress,34.4264,-100.204,14.16,38,6,3.5,US,1734487320
295,tharangambadi,11.0319,79.8528,23.88,85,100,4.87,IN,1734487321
296,sisimiut,66.9395,-53.6735,-7.49,82,100,7.11,GL,1734487323
297,north bend,43.4065,-124.2243,15.09,63,100,4.63,US,1734487324
298,weno,7.4515,151.8468,28.12,81,97,8.48,FM,1734487326
299,tura,25.5198,90.2201,16.94,59,5,0.98,IN,1734487328
300,jatai,-17.8814,-51.7144,20.38,86,92,1.12,BR,1734487329
301,takedamachi,32.9667,131.4,8.54,55,55,1.58,JP,1734487331
302,mugia,43.1041,-9.2179,14.6,90,100,12.84,ES,1734487332
303,chui,-33.6971,-53.4616,15.8,89,0,2.89,UY,1734487334
304,inarajan village,13.2736,144.7484,28.55,89,50,8.99,GU,1734487336
305,malmberget,67.1753,20.6549,-15.69,92,100,0.0,SE,1734487339
306,winnemucca,40.973,-117.7357,5.03,65,100,4.63,US,1734487341
307,saint ann's bay,18.4358,-77.201,26.18,81,9,3.62,JM,1734487342
308,tagiura,32.8817,13.3506,16.68,66,32,2.94,LY,1734487344
309,abdanan,32.9926,47.4198,5.24,22,0,2.78,IR,1734487346
310,welkom,-27.9864,26.7066,19.44,76,94,4.43,ZA,1734487347
311,bokovskaya,49.229,41.8306,0.13,91,100,7.34,RU,1734487349
312,ulsteinvik,62.3432,5.8487,7.5,87,100,4.58,NO,1734487351
313,starotitarovskaya,45.2136,37.1439,8.26,75,88,10.19,RU,1734487352
314,carloforte,39.145,8.3058,12.83,74,0,3.41,IT,1734487354
315,covington,39.0837,-84.5086,6.62,73,39,1.2,US,1734487329
316,pechory,57.8164,27.6119,-3.7,84,20,4.86,RU,1734487357
317,skiathos,39.1623,23.4909,12.21,57,2,1.91,GR,1734487358
318,la ronge,55.1001,-105.2842,-22.86,70,0,6.17,CA,1734487360
319,rexburg,43.826,-111.7897,-1.01,100,100,0.0,US,1734487361
320,cho dok,10.7,105.1167,25.04,65,18,5.28,VN,1734487366
321,ak-dovurak,51.1833,90.6,-26.15,89,30,0.55,RU,1734487368
322,kilindoni,-7.9139,39.6668,26.9,74,63,1.58,TZ,1734487369
323,pisco,-13.7,-76.2167,19.45,82,0,7.2,PE,1734487371
324,hassi messaoud,31.6804,6.0729,5.92,65,0,0.51,DZ,1734487373
325,toledo,39.8333,-4.0,5.73,61,91,0.86,ES,1734487374
326,nemuro,43.3236,145.575,-2.84,53,8,8.22,JP,1734487376
327,monrovia,6.3005,-10.7969,26.53,83,34,1.51,LR,1734487378
328,paradip garh,20.3167,86.6167,20.55,50,100,3.71,IN,1734487380
329,mabaruma,8.2,-59.7833,23.16,98,82,0.46,GY,1734487381
330,cotonou,6.3654,2.4183,26.99,83,20,1.03,BJ,1734487383
331,lompoc,34.6391,-120.4579,18.94,51,0,4.92,US,1734487385
332,qamdo,31.1667,97.2333,-2.07,40,0,2.6,CN,1734487386
333,nadym,65.5333,72.5167,-22.14,99,19,3.47,RU,1734487388
334,samut songkhram,13.4,99.9583,24.58,59,78,3.93,TH,1734487389
335,yerofey pavlovich,53.9667,121.9667,-14.31,82,100,1.01,RU,1734487390
336,cherdyn',60.403,56.4787,-7.84,90,100,2.49,RU,1734487392
337,magistral'nyy,56.1725,107.4458,-22.55,100,74,1.09,RU,1734487393
338,moron de la frontera,37.1208,-5.454,8.55,87,0,0.0,ES,1734487395
339,ankang,32.68,109.0172,6.26,37,100,1.34,CN,1734487396
340,gornopravdinsk,60.05,69.9,-10.44,94,100,3.5,RU,1734487399
341,pontian kechil,1.4866,103.3896,26.22,88,100,4.7,MY,1734487400
342,sitka,57.0531,-135.33,-0.75,66,31,4.1,US,1734487402
343,bonthe,7.5264,-12.505,25.5,80,89,1.48,SL,1734487403
344,necochea,-38.5473,-58.7368,18.41,71,100,6.67,AR,1734487405
345,salinopolis,-0.6136,-47.3561,27.1,82,13,5.1,BR,1734487408
346,staryye ozinki,51.1786,49.6769,-2.71,96,100,4.79,RU,1734487411
347,ulladulla,-35.35,150.4667,20.05,48,3,6.81,AU,1734487412
348,egilsstadir,65.2653,-14.3948,-9.05,86,75,1.54,IS,1734487414
349,calvinia,-31.4707,19.776,12.34,63,0,1.58,ZA,1734487415
350,ulaangom,49.9811,92.0667,-20.15,91,100,1.91,MN,1734486875
351,rawai,7.7797,98.3253,26.56,78,34,5.76,TH,1734487420
352,puerto real,36.5282,-6.1901,11.25,73,15,1.93,ES,1734487422
353,mando,10.7167,6.5667,18.85,16,90,4.42,NG,1734487424
354,kavaratti,10.5669,72.642,26.46,69,100,1.73,IN,1734487425
355,hondo,32.45,130.2,8.3,72,100,3.35,JP,1734487427
356,i-n-salah,27.1935,2.4607,10.37,57,0,6.46,DZ,1734487413
357,prince rupert,54.3161,-130.3201,5.83,68,100,9.26,CA,1734487430
358,zhangjiakou shi xuanhua qu,40.6103,115.0447,-7.12,42,0,3.9,CN,1734487431
359,taoudenni,22.6783,-3.9836,13.83,30,0,9.6,ML,1734487433
360,mantua,45.1667,10.7833,-0.66,91,100,0.33,IT,1734487435
361,springbok,-29.6643,17.8865,11.9,63,0,1.26,ZA,1734487436
362,marsabit,2.3284,37.9899,18.36,68,82,2.49,KE,1734487438
363,broome,42.2506,-75.833,3.34,81,0,2.24,US,1734487439
364,aqaba,29.5267,35.0078,11.92,58,0,3.6,JO,1734487440
365,ha tinh,18.3333,105.9,17.4,89,100,3.31,VN,1734487405
366,glace bay,46.1969,-59.957,9.32,96,100,7.72,CA,1734487444
367,galliano,29.4422,-90.2992,19.0,88,0,1.54,US,1734487446
368,dudinka,69.4058,86.1778,-6.96,94,100,11.02,RU,1734487448
369,thames,-37.1333,175.5333,20.56,56,95,5.82,NZ,1734487449
370,ikem,6.779,7.7169,22.15,23,64,2.09,NG,1734487451
371,luderitz,-26.6481,15.1594,14.51,85,0,7.31,NA,1734487452
372,bucerias,20.75,-105.3333,23.99,83,40,2.06,MX,1734487453
373,kedougou,12.5579,-12.1743,22.16,16,100,1.35,SN,1734487196
374,hasilpur,29.7122,72.5553,10.09,21,2,2.46,PK,1734487457
375,hadibu,12.65,54.0333,23.03,80,77,6.17,YE,1734487459
376,lazaro cardenas,17.9583,-102.2,25.82,82,24,1.81,MX,1734487461
377,presque isle,46.6811,-68.0159,4.43,80,100,5.14,US,1734487461
378,ancud,-41.8697,-73.8203,12.94,91,39,3.54,CL,1734487381
379,chibougamau,49.9168,-74.3659,-0.21,93,100,6.69,CA,1734487244
380,vilyuchinsk,52.9306,158.4028,1.15,86,100,4.9,RU,1734487467
381,barcelos,41.5388,-8.6151,13.61,87,100,2.8,PT,1734487468
382,caleta de carquin,-11.0925,-77.6267,19.67,87,100,3.66,PE,1734487470
383,saint-pierre,-21.3393,55.4781,22.82,64,0,3.09,RE,1734487472
384,topchikha,52.8192,83.1185,-23.41,100,25,1.74,RU,1734487474
385,birnin kebbi,12.4539,4.1975,18.18,19,0,5.83,NG,1734487476
386,nova sintra,14.8667,-24.7167,26.0,70,53,1.73,CV,1734487477
387,igarka,67.4667,86.5833,-7.15,94,100,9.84,RU,1734487480
388,tazacorte,28.629,-17.9293,20.64,45,0,2.24,ES,1734487481
389,kirchseeon,48.0714,11.8888,2.16,92,100,0.45,DE,1734487483
390,sarangani,5.4033,125.4636,27.46,80,100,2.58,PH,1734487486
391,makinsk,52.6292,70.4169,-9.91,90,100,5.47,KZ,1734487489
392,tekeli,44.83,78.8239,-4.23,43,8,6.52,KZ,1734487490
393,carnarvon,-24.8667,113.6333,27.54,62,9,8.41,AU,1734487492
394,zest'aponi,42.11,43.0525,2.79,99,100,1.04,GE,1734487496
395,el granada,37.5027,-122.4694,12.21,90,0,2.57,US,1734487498
396,opuwo,-18.0607,13.84,21.05,29,100,1.71,NA,1734487500
397,tlahualilo de zaragoza,26.1167,-103.45,19.11,49,82,3.32,MX,1734487502
398,pitimbu,-7.4706,-34.8086,26.52,79,100,4.39,BR,1734487503
399,fang,19.9169,99.2145,20.74,82,33,0.74,TH,1734487505
400,port augusta,-32.5,137.7667,28.19,16,0,4.46,AU,1734487509
401,kedainiai,55.2883,23.9747,0.22,83,68,4.41,LT,1734487511
402,kill devil hills,36.0307,-75.676,16.66,89,0,0.0,US,1734487512
403,guaimaro,21.05,-77.35,22.84,93,100,4.26,CU,1734487514
404,yelan'-koleno,51.1523,41.2306,-0.58,93,97,7.82,RU,1734487516
405,gadzhiyevo,69.2551,33.3362,-15.81,88,100,2.39,RU,1734487518
406,sicuani,-14.2694,-71.2261,8.52,89,100,0.54,PE,1734487520
407,ilha de mocambique,-15.0342,40.7358,25.7,84,89,2.92,MZ,1734487521
408,pariaman,-0.619,100.12,28.03,89,100,3.33,ID,1734487523
409,ifakara,-8.1333,36.6833,21.38,97,32,0.43,TZ,1734487525
410,kalymnos,36.95,26.9833,11.74,82,0,3.09,GR,1734487453
411,effium,6.6292,8.0593,22.45,23,78,1.94,NG,1734487530
412,ak'ordat,15.5486,37.8867,21.75,74,100,1.43,ER,1734487531
413,alaghsas,17.0187,8.0168,15.51,23,4,3.3,NE,1734487534
414,awjilah,29.1081,21.2869,12.29,75,0,3.17,LY,1734487539
415,tangalle,6.024,80.7911,24.78,90,64,0.87,LK,1734487541
416,prince george,53.9166,-122.753,-10.31,91,100,5.14,CA,1734487336
417,yenangyaung,20.4667,94.8833,22.35,52,100,2.18,MM,1734487546
418,kouroussa,10.65,-9.8833,19.6,19,12,2.03,GN,1734487548
419,brookings,44.3114,-96.7984,-4.41,96,100,2.57,US,1734487549
420,las tablas,7.7667,-80.2833,24.54,99,2,6.64,PA,1734487551
421,nar'yan-mar,67.6713,53.087,-19.26,81,24,4.05,RU,1734487552
422,cururupu,-1.8283,-44.8683,26.0,82,63,2.03,BR,1734487554
423,horta,38.5333,-28.6333,16.68,78,89,12.52,PT,1734487556
424,kapuskasing,49.4169,-82.4331,-4.95,100,100,4.63,CA,1734487558
425,kharsia,21.9667,83.1167,14.31,42,99,1.19,IN,1734487559
426,jieshi,22.8134,115.8257,16.52,55,63,3.69,CN,1734487561
427,kristinestad,62.2743,21.376,-6.49,83,54,1.3,FI,1734487563
428,thunder bay,48.4001,-89.3168,-5.01,74,100,2.06,CA,1734487274
429,sao vicente,-23.9631,-46.3919,22.77,26,33,0.23,BR,1734487566
430,tucuma,-0.1833,-50.05,25.51,91,8,3.43,BR,1734487567
431,kingston,17.997,-76.7936,27.53,69,20,1.03,JM,1734487098
432,seward,40.907,-97.0989,0.44,79,100,2.24,US,1734487571
433,susuman,62.7833,148.1667,-20.06,97,100,1.48,RU,1734487573
434,minas de marcona,-15.2119,-75.1103,15.91,83,100,5.9,PE,1734487575
435,ayancik,41.9447,34.5861,9.07,70,2,3.18,TR,1734487576
436,lospalos,-8.5186,127.0025,29.97,63,100,4.01,TL,1734487578
437,zilair,52.2332,57.4392,-5.2,96,100,3.9,RU,1734487579
438,margaret river,-33.95,115.0667,22.47,59,0,6.84,AU,1734487581
439,ketchikan,55.3422,-131.6461,2.97,64,100,0.0,US,1734487584
440,beni saf,35.301,-1.3823,11.96,42,88,0.94,DZ,1734487587
441,starodub,52.5844,32.7633,0.36,84,99,9.68,RU,1734487588
442,mizan teferi,6.9833,35.5833,17.6,76,18,1.14,ET,1734487590
443,taguatinga,-12.3857,-46.5711,22.68,90,100,1.65,BR,1734487591
444,markovo,57.3206,107.0881,-25.75,100,100,0.8,RU,1734487593
445,soe,-9.8607,124.284,25.71,70,100,2.64,ID,1734487594
446,inda silase,14.1031,38.2829,14.76,66,9,2.38,ET,1734487596
447,merlo,-32.3429,-65.014,20.36,63,52,7.69,AR,1734487563
448,talara,-4.5772,-81.2719,21.42,78,0,5.66,PE,1734487559
449,mandera,3.9366,41.867,25.75,42,80,3.53,KE,1734487600
450,zeya,53.75,127.2667,-9.22,77,97,2.54,RU,1734487602
451,nacozari viejo,30.4,-109.65,10.72,45,29,0.87,MX,1734487603
452,atar,20.5169,-13.0499,17.64,25,100,8.81,MR,1734487605
453,anar darah,32.7587,61.654,2.59,39,0,2.37,AF,1734487453
454,santiago suchilquitongo,17.25,-96.8833,12.43,94,0,2.38,MX,1734487608
455,kayangel,8.0823,134.7173,26.27,84,100,1.23,PW,1734487610
456,nizhnesortymskiy,62.4397,71.7603,-12.57,97,95,4.5,RU,1734487611
457,nuku'alofa,-21.1333,-175.2,26.44,82,8,8.76,TO,1734487615
458,troitsko-pechorsk,62.7084,56.1964,-17.02,100,100,2.09,RU,1734487618
459,arkalyk,50.2486,66.9114,-6.95,87,100,7.53,KZ,1734487619
460,dali,25.7,100.1833,9.57,53,29,0.9,CN,1734487621
461,kem',64.9555,34.5793,-8.02,87,100,1.56,RU,1734487623
462,praia,14.9215,-23.5087,23.61,78,94,6.05,CV,1734487625
463,darnah,32.767,22.6367,15.19,69,1,6.42,LY,1734487628
464,pacific grove,36.6177,-121.9166,13.57,91,0,2.06,US,1734487629
465,zalingei,12.9096,23.4741,18.91,22,59,1.27,SD,1734487631
466,saint-francois,46.4154,3.9054,4.25,100,100,1.54,FR,1734487632
467,ponta grossa,-25.095,-50.1619,15.24,95,0,5.28,BR,1734487372
468,nizhniy kuranakh,58.8353,125.4869,-18.51,92,99,3.97,RU,1734487635
469,karaj,35.8355,51.0103,2.91,36,0,0.85,IR,1734487639
470,sanga-sanga,5.0725,119.7853,27.76,81,100,5.49,PH,1734487641
471,labytnangi,66.6572,66.4183,-25.6,95,20,1.81,RU,1734487645
472,sile,41.1754,29.6133,9.73,83,0,5.97,TR,1734487646
473,ginir,7.1333,40.7,11.09,51,18,2.05,ET,1734487649
474,lai,9.3952,16.2989,20.26,20,77,2.28,TD,1734487651
475,mildura,-34.2,142.15,24.48,37,0,7.59,AU,1734487652
476,ritchie,-29.038,24.6028,19.26,8,3,2.82,ZA,1734487654
477,kolonia town,6.964,158.206,27.06,94,100,0.0,FM,1734487656
478,san jose del guaviare,2.5729,-72.6459,20.55,95,95,0.35,CO,1734487659
479,udalguri,26.7667,92.1333,15.1,42,0,2.17,IN,1734487662
480,casariche,37.3037,-4.7582,11.12,50,18,1.07,ES,1734487663
481,oroqen zizhiqi,50.5667,123.7167,-14.45,77,94,1.64,CN,1734487665
482,sao tome,0.3365,6.7273,26.72,79,97,1.45,ST,1734487666
483,sao joao da barra,-21.6403,-41.0511,23.1,89,100,2.47,BR,1734487668
484,kapa'a,22.0752,-159.319,28.04,72,0,6.17,US,1734487670
485,mahdia,35.5047,11.0622,12.57,74,0,3.52,TN,1734487672
486,manismata,-2.4667,111.0333,29.01,73,99,1.9,ID,1734487674
487,berezovyy,51.6667,135.7,-14.76,79,11,1.31,RU,1734487676
488,juli,-16.2167,-69.45,9.0,79,2,1.54,PE,1734487677
489,siwa oasis,29.2041,25.5195,12.02,73,93,3.26,EG,1734487679
490,al jubayl,27.0112,49.6583,15.47,47,43,7.05,SA,1734487661
491,jiayuguan,39.8167,98.3,-10.01,60,93,2.27,CN,1734487682
492,carahue,-38.7,-73.1667,10.35,99,48,2.23,CL,1734487684
493,mount pearl,47.5166,-52.7813,2.4,88,99,3.58,CA,1734487686
494,akureyri,65.6835,-18.0878,-3.04,80,100,1.03,IS,1734487563
495,yola,9.2,12.4833,20.4,26,100,1.07,NG,1734487511
496,najran,17.4924,44.1277,8.09,48,10,0.5,SA,1734487692
497,tanjung pinang,0.9167,104.45,27.2,84,100,5.98,ID,1734487694
498,vilhena,-12.7406,-60.1458,21.28,98,100,1.49,BR,1734487695
499,zaraza,9.3503,-65.3245,24.51,84,75,2.52,VE,1734487697
500,levuka,50.1834,-105.4011,-20.56,98,30,2.7,CA,1734487699
501,khao yoi,13.2403,99.8243,24.4,61,67,3.97,TH,1734487700
502,palikir - national government center,6.9248,158.1611,26.47,94,100,0.0,FM,1734487702
503,qui nhon,13.7667,109.2333,21.41,89,100,6.19,VN,1734487704
504,agogo,6.8,-1.0819,19.27,29,7,0.56,GH,1734487708
505,sungailiat,-1.85,106.1333,27.37,85,100,2.6,ID,1734487709
506,alvesta,56.8993,14.5556,3.15,100,100,2.57,SE,1734487711
507,humberto de campos,-2.5983,-43.4611,26.41,82,10,4.13,BR,1734487713
508,naryn,41.4287,75.9911,-15.65,64,100,4.11,KG,1734487715
509,vilyuysk,63.7553,121.6247,-25.49,95,15,3.39,RU,1734487717
510,st. john's,47.5649,-52.7093,2.86,84,100,2.24,CA,1734487718
511,geneseo,42.7959,-77.8169,3.6,88,100,4.04,US,1734487721
512,el jadid,33.2549,-8.506,16.83,80,30,2.72,MA,1734487722
513,rikaze,29.25,88.8833,-0.19,29,0,0.41,CN,1734487724
514,orastie,45.8333,23.2,6.36,84,100,1.49,RO,1734487726
515,kingscliff,-28.2667,153.5667,25.89,94,75,3.6,AU,1734487727
516,ludus,46.4833,24.1,3.1,88,12,1.38,RO,1734487729
517,balikpapan,-1.2675,116.8289,28.55,65,20,3.09,ID,1734487450
518,horodnye,45.8908,28.8483,7.52,68,82,5.29,UA,1734487732
519,santyoku,37.4406,129.1708,1.56,33,0,2.34,KR,1734487734
520,swakopmund,-22.6833,14.5333,15.55,84,2,0.45,NA,1734487735
521,weiler-simmerberg,47.5833,9.9333,0.94,81,100,1.7,DE,1734487737
522,fayroz koh,34.5195,65.2509,-4.39,63,100,1.48,AF,1734487738
523,fort bragg,35.139,-79.006,16.0,89,40,0.0,US,1734487712
524,kampong speu,11.5,104.3333,25.79,59,16,6.36,KH,1734487741
525,pailon,-17.65,-62.75,25.86,70,58,2.57,BO,1734487743
526,santiago,-33.4569,-70.6483,21.03,58,0,3.6,CL,1734487607
527,tezu,27.9167,96.1667,18.21,22,0,0.64,IN,1734487746
528,kindu,-2.95,25.95,20.5,100,100,1.1,CD,1734487747
529,jabor,5.921,169.6434,27.8,83,100,9.62,MH,1734487749
530,knysna,-34.0363,23.0471,16.67,74,82,1.9,ZA,1734487750
531,santa cruz,-17.8,-63.1667,24.7,88,20,2.57,BO,1734487752
532,syktyvkar,61.6764,50.8099,-7.15,100,100,5.0,RU,1734487753
533,komatipoort,-25.4332,31.9548,23.66,82,100,0.93,ZA,1734487755
534,betio village,1.358,172.9211,31.02,77,100,8.47,KI,1734487756
535,ngetkib,7.3645,134.5148,29.14,84,75,3.6,PW,1734487758
536,mareeba,-17.0,145.4333,34.38,38,21,2.1,AU,1734487759
537,guerrero negro,27.9769,-114.0611,15.25,81,0,4.12,MX,1734487761
538,kittila,67.6647,24.8936,-24.92,84,0,0.51,FI,1734487764
539,crucecita,-28.95,-58.9833,20.42,63,2,3.73,AR,1734487766
540,mirnyy,62.5353,113.9611,-24.24,96,54,3.57,RU,1734487768
541,bolobo,-2.1667,16.2333,21.97,95,97,1.21,CD,1734487769
542,port hedland,-20.3167,118.5667,38.03,41,95,6.17,AU,1734487771
543,zambezi,-13.5432,23.1047,19.66,89,100,1.72,ZM,1734487772
544,kalmunai,7.4167,81.8167,25.12,88,99,5.44,LK,1734487774
545,svetlyy,54.675,20.1347,4.99,89,34,4.35,RU,1734487775
546,lebork,54.5392,17.7501,6.91,99,100,3.67,PL,1734487654
547,suntar,62.1444,117.6319,-22.35,91,7,3.33,RU,1734487779
548,daru,-9.0763,143.2092,28.62,73,100,4.76,PG,1734487781
549,benjamin constant,-4.3831,-70.0311,25.61,97,98,0.54,BR,1734487783
550,argenton-sur-creuse,46.59,1.5198,6.98,66,34,3.06,FR,1734487784
551,las lomitas,-24.7096,-60.593,24.29,48,53,2.77,AR,1734487785
552,darlington,54.5243,-1.5504,12.14,80,100,8.75,GB,1734487787
553,kwang binh,17.4833,106.6,17.91,94,100,3.97,VN,1734487789
554,mae chan,20.1467,99.8526,20.69,81,25,0.81,TH,1734487790
555,fairwood,47.4484,-122.1573,7.95,93,100,4.12,US,1734487792
556,salalah,17.0151,54.0924,20.05,12,0,6.69,OM,1734487793
557,lankaran,38.7543,48.8506,7.34,67,65,2.01,AZ,1734487796
558,parabel',58.6978,81.4825,-10.43,77,100,5.51,RU,1734487797
559,tasgaon,17.0333,74.6,16.84,37,67,1.05,IN,1734487799
560,zyryanskoye,56.8306,86.6258,-20.48,95,100,1.86,RU,1734487800
561,lerwick,60.1545,-1.1494,8.62,95,100,12.39,GB,1734487802
562,betare oya,5.6,14.0833,20.46,28,100,1.64,CM,1734487803
563,la tuque,47.4334,-72.7824,1.44,82,85,4.84,CA,1734487654
564,armacao de buzios,-22.7469,-41.8817,25.03,89,74,3.54,BR,1734487807
565,arno,60.1167,18.6333,-0.51,76,100,2.64,SE,1734487809
566,al kharijah,25.4514,30.5464,12.9,70,76,4.21,EG,1734487810
567,shchyolkino,45.4291,35.8223,7.84,77,50,11.48,UA,1734487812
568,cidreira,-30.1811,-50.2056,19.54,83,6,3.99,BR,1734487813
