City_ID,City,Lat,Lng,Max Temp,Humidity,Cloudiness,Wind Speed,Country,Date
0,yellowknife,62.456,-114.3525,-31.36,68,0,2.57,CA,1734502386
1,vorgashor,67.5833,63.95,-24.57,100,97,2.97,RU,1734502387
2,papatowai,-46.5619,169.4708,17.12,61,100,3.82,NZ,1734502388
3,tiksi,71.6872,128.8694,-23.73,98,85,3.43,RU,1734502389
4,namibe,-15.1961,12.1522,21.82,75,100,3.2,AO,1734502391
5,sao joao da barra,-21.6403,-41.0511,22.21,92,99,2.84,BR,1734502162
6,miramichi,47.0043,-65.4654,3.61,74,75,5.76,CA,1734502393
7,grytviken,-54.2811,-36.5092,0.09,80,20,4.24,GS,1734502394
8,waitangi,-43.9535,-176.5597,14.34,95,100,3.58,NZ,1734502395
9,wailua homesteads,22.0669,-159.378,23.44,89,20,4.12,US,1734502397
10,messkirch,47.9833,9.1167,5.05,88,100,5.81,DE,1734502398
11,hawaiian paradise park,19.5933,-154.9731,23.28,98,0,0.0,US,1734502399
12,invercargill,-46.4,168.35,16.68,76,100,5.36,NZ,1734502400
13,adamstown,-25.066,-130.1015,21.36,67,1,5.4,PN,1734502401
14,aginskoye,51.1,114.53,-11.86,86,100,1.28,RU,1734502335
15,kupang,-10.1667,123.5833,31.32,74,75,6.17,ID,1734502404
16,port-aux-francais,-49.35,70.2167,5.07,95,93,13.75,TF,1734502405
17,camiri,-20.05,-63.5167,21.06,85,75,1.57,BO,1734502406
18,margaret river,-33.95,115.0667,22.19,57,0,8.73,AU,1734502407
19,kerman,30.2832,57.0788,6.38,16,0,0.38,IR,1734502410
20,port alfred,-33.5906,26.891,19.54,98,98,1.34,ZA,1734502411
21,guerrero negro,27.9769,-114.0611,13.56,87,0,1.48,MX,1734502412
22,inari,68.906,27.0288,-23.25,100,59,1.85,FI,1734502414
23,weno,7.4515,151.8468,28.07,82,97,11.43,FM,1734502415
24,corumba,-19.0092,-57.6533,24.28,70,6,0.28,BR,1734502417
25,ribeira grande,38.5167,-28.7,15.43,85,75,4.02,PT,1734502418
26,bammental,49.3561,8.7794,5.05,99,100,2.87,DE,1734502419
27,bowen,-20.0167,148.2333,29.22,70,38,4.08,AU,1734502386
28,sinabang,2.4803,96.3801,28.25,76,89,2.05,ID,1734502421
29,bethel,41.3712,-73.414,5.9,81,93,0.89,US,1734502183
30,coahuayana de hidalgo,18.7,-103.6583,22.64,93,50,1.21,MX,1734502424
31,edna,28.9786,-96.6461,18.82,95,18,2.77,US,1734502425
32,villa ojo de agua,-29.5,-63.6938,18.43,64,57,4.51,AR,1734502277
33,kodiak,57.79,-152.4072,3.73,93,100,4.63,US,1734502427
34,cabo san lucas,22.8909,-109.9124,19.31,80,39,0.66,MX,1734502140
35,ushuaia,-54.8,-68.3,8.81,46,0,5.14,AR,1734502322
36,lihue,21.9789,-159.3672,23.77,88,20,4.12,US,1734502431
37,pankrushikha,53.8319,80.3406,-11.28,69,100,6.23,RU,1734502432
38,geraldton,-28.7667,114.6,26.23,61,75,10.8,AU,1734502433
39,college,64.8569,-147.8028,-15.86,77,40,2.06,US,1734502434
40,olonkinbyen,70.9221,-8.7187,-1.15,68,100,7.84,SJ,1734502435
41,utrik,11.2278,169.8474,27.3,78,27,10.54,MH,1734502438
42,ilulissat,69.2167,-51.1,-7.99,62,40,6.17,GL,1734502439
43,alamosa,37.4695,-105.87,-8.01,73,0,1.58,US,1734502440
44,bilibino,68.0546,166.4372,-24.3,99,100,1.77,RU,1734502441
45,lahaina,20.8783,-156.6825,23.78,85,6,0.49,US,1734502442
46,badger,64.8,-147.5333,-15.91,81,40,2.06,US,1734502443
47,mili,6.0815,171.735,27.83,82,97,8.69,MH,1734502445
48,albany,42.6001,-73.9662,4.14,81,54,2.27,US,1734502446
49,hamilton,39.1834,-84.5333,4.44,82,100,2.24,US,1734501866
50,loa janan,-0.583,117.095,32.27,52,100,2.34,ID,1734502448
51,atafu village,-8.5421,-172.5159,28.5,77,100,7.25,TK,1734502449
52,vratsa,43.21,23.5625,6.51,74,3,2.17,BG,1734502450
53,sur,22.5667,59.5289,22.2,58,4,1.3,OM,1734502452
54,el dorado,38.7666,-120.5177,8.99,80,64,0.89,US,1734502453
55,buka,40.8108,69.1986,3.12,67,100,2.17,UZ,1734502454
56,kolwezi,-10.7148,25.4667,17.18,95,100,0.33,CD,1734502455
57,praia da vitoria,38.7333,-27.0667,15.14,88,75,6.79,PT,1734502456
58,yeppoon,-23.1333,150.7333,28.01,70,12,4.41,AU,1734502458
59,christchurch,-43.5333,172.6333,16.64,54,3,9.77,NZ,1734501945
60,qamdo,31.1667,97.2333,4.55,19,9,0.67,CN,1734502461
61,cedeira,43.6797,-8.0209,16.02,80,100,9.21,ES,1734502462
62,west island,-12.1568,96.8225,30.99,70,75,4.12,CC,1734502464
63,lukolela,-1.0605,17.1821,23.62,81,76,1.03,CD,1734502465
64,gaalkacyo,6.7697,47.4308,26.15,43,20,6.32,SO,1734502466
65,hasaki,35.7333,140.8333,10.12,56,57,6.72,JP,1734502467
66,san-pedro,4.7485,-6.6363,25.24,92,51,1.78,CI,1734502468
67,saynshand,44.8824,110.1163,-8.9,45,100,5.72,MN,1734502469
68,quepos,9.4236,-84.1652,25.18,77,5,1.45,CR,1734502471
69,sirte,31.2089,16.5887,15.0,79,72,1.36,LY,1734502472
70,richards bay,-28.783,32.0377,25.83,83,100,0.17,ZA,1734502183
71,east london,-33.0153,27.9116,19.52,94,100,6.17,ZA,1734502474
72,gimbi,9.1667,35.8333,19.04,46,33,0.33,ET,1734502475
73,lompoc,34.6391,-120.4579,13.94,59,0,2.06,US,1734502476
74,tsiombe,-25.3,45.4833,34.63,37,86,1.34,MG,1734502478
75,fernie,49.5,-115.0687,-2.1,97,100,1.82,CA,1734502279
76,edinburgh of the seven seas,-37.0676,-12.3116,17.51,92,98,12.97,SH,1734502480
77,stanley,54.868,-1.6985,13.01,81,75,11.32,GB,1734502481
78,iqaluit,63.7506,-68.5145,-26.76,87,79,2.56,CA,1734502283
79,besisahar,28.2313,84.3761,19.49,31,0,2.87,NP,1734502483
80,aasiaat,68.7098,-52.8699,-11.55,93,100,4.44,GL,1734502485
81,daru,-9.0763,143.2092,32.36,58,94,1.46,PG,1734502486
82,sitka,57.0531,-135.33,2.94,65,0,3.6,US,1734502487
83,mumford,5.2618,-0.759,25.65,86,8,2.08,GH,1734502488
84,nova sintra,14.8667,-24.7167,25.39,73,14,5.87,CV,1734502489
85,ust-nera,64.5667,143.2,-29.85,99,100,0.31,RU,1734502490
86,san antonio de pale,-1.4014,5.6325,26.49,82,53,2.25,GQ,1734502492
87,whitehorse,60.7161,-135.0538,-21.1,76,40,1.03,CA,1734502493
88,port saint john's,-31.6229,29.5448,21.35,93,100,1.11,ZA,1734502494
89,jamestown,42.097,-79.2353,2.79,89,100,2.06,US,1734502495
90,luis correia,-2.8792,-41.6669,26.44,82,62,6.52,BR,1734502496
91,vieste,41.8825,16.175,12.55,69,4,2.07,IT,1734502498
92,udachny,66.4167,112.4,-27.84,92,40,3.01,RU,1734502499
93,kavaratti,10.5669,72.642,27.03,67,100,2.69,IN,1734502500
94,afaahiti,-17.75,-149.2833,25.95,80,94,3.17,PF,1734502501
95,anadyr,64.75,177.4833,-7.72,79,100,13.0,RU,1734502502
96,blackmans bay,-43.0167,147.3167,19.29,66,1,0.89,AU,1734502503
97,bratsk,56.1325,101.6142,-19.73,83,90,2.27,RU,1734502505
98,sirjan,29.452,55.6814,6.74,16,0,2.38,IR,1734502313
99,kristiansund,63.1115,7.732,4.36,87,75,4.63,NO,1734502507
100,caleta de carquin,-11.0925,-77.6267,19.33,89,82,2.84,PE,1734502508
101,mala vyska,48.6431,31.6366,1.36,82,6,7.33,UA,1734502509
102,quatre cocos,-20.2078,57.7625,29.06,63,54,7.0,MU,1734502511
103,tazacorte,28.629,-17.9293,20.54,49,0,6.69,ES,1734502512
104,fale old settlement,-9.3852,-171.2468,28.11,78,100,7.56,TK,1734502513
105,shevchenko,48.5,35.0,2.79,70,78,8.64,UA,1734502514
106,north battleford,52.7834,-108.2847,-26.95,83,0,3.6,CA,1734502515
107,port elizabeth,-33.918,25.5701,21.29,75,20,6.17,ZA,1734502516
108,puerto natales,-51.7236,-72.4875,6.48,74,93,10.03,CL,1734502518
109,hithadhoo,-0.6,73.0833,27.68,78,67,6.53,MV,1734502519
110,pontcharra,45.4333,6.0167,4.52,76,100,2.09,FR,1734502520
111,leua,48.2156,18.6071,3.59,93,85,0.29,SK,1734502521
112,puerto ayora,-0.7393,-90.3518,21.98,89,20,2.33,EC,1734502522
113,ancud,-41.8697,-73.8203,12.38,91,81,5.49,CL,1734502523
114,baruun-urt,46.6806,113.2792,-12.53,75,92,4.24,MN,1734502525
115,gadzhiyevo,69.2551,33.3362,-16.8,89,100,3.16,RU,1734502526
116,boguchany,58.3814,97.4531,-13.68,88,12,0.75,RU,1734502527
117,rio grande,-32.035,-52.0986,18.19,77,1,4.41,BR,1734502528
118,thompson,55.7435,-97.8558,-22.91,77,75,4.12,CA,1734502529
119,longyearbyen,78.2186,15.6401,-9.09,62,20,2.57,SJ,1734502531
120,kyosai,34.8503,128.5886,3.9,43,8,5.16,KR,1734502532
121,minas de marcona,-15.2119,-75.1103,15.9,83,100,4.49,PE,1734502533
122,tidjikja,18.5564,-11.4271,16.19,30,100,9.37,MR,1734502534
123,tazovsky,67.4667,78.7,-13.65,95,98,4.55,RU,1734502535
124,port mathurin,-19.6833,63.4167,25.33,73,55,8.25,MU,1734502536
125,enewetak,11.3474,162.3373,27.79,80,76,9.16,MH,1734502538
126,noosa heads,-26.3833,153.15,25.83,84,79,6.56,AU,1734502540
127,tofol,5.3248,163.0078,28.88,79,100,2.06,FM,1734502541
128,punta del este,-34.9667,-54.95,17.15,89,0,3.6,UY,1734502542
129,vadso,70.0744,29.7487,-14.91,78,100,5.66,NO,1734502543
130,san julian,21.0167,-102.1667,11.02,47,3,2.49,MX,1734502545
131,urangan,-25.3,152.9,28.73,70,45,3.58,AU,1734502546
132,nizhniy odes,63.6445,54.856,-18.57,98,99,2.95,RU,1734502547
133,ugoofaaru,5.6667,73.0,27.23,78,35,3.04,MV,1734502548
134,nur-sultan,51.1801,71.446,-8.03,67,0,7.0,KZ,1734502549
135,luderitz,-26.6481,15.1594,17.14,69,0,8.51,NA,1734502551
136,kapshagay,43.8833,77.0833,-4.07,66,85,7.08,KZ,1734502552
137,talnakh,69.4865,88.3972,-11.93,95,100,7.25,RU,1734502553
138,avarua,-21.2078,-159.775,26.03,94,100,0.51,CK,1734502554
139,lebu,-37.6167,-73.65,12.27,90,0,6.29,CL,1734502555
140,dryden,49.7833,-92.7503,-12.84,72,100,3.09,CA,1734502556
141,tolanaro,-25.0319,46.9987,32.04,62,0,5.14,MG,1734502558
142,klyuchi,52.2667,79.1667,-8.65,75,100,7.67,RU,1734502560
143,anar darah,32.7587,61.654,7.34,27,0,1.53,AF,1734502563
144,noumea,-22.2763,166.4572,25.41,70,87,6.15,NC,1734502565
145,hermanus,-34.4187,19.2345,18.78,58,61,1.87,ZA,1734502567
146,barbacoas,1.6715,-78.1398,24.09,97,100,0.22,CO,1734502569
147,snowflake,34.5134,-110.0785,1.62,32,34,2.13,US,1734502453
148,nagqu,31.5,92.0,-1.81,19,26,14.48,CN,1734502571
149,colonia,50.9333,6.95,8.31,87,20,3.6,DE,1734502461
150,campos dos goytacazes,-21.75,-41.3,21.32,95,86,1.67,BR,1734502527
151,t'ongch'on-up,38.9539,127.8917,-0.07,42,42,2.68,KP,1734502574
152,moranbah,-22.0016,148.0466,30.83,46,77,5.83,AU,1734502576
153,uturoa,-16.7333,-151.4333,27.55,76,60,4.1,PF,1734502577
154,cuatro cienegas de carranza,26.9833,-102.0833,17.23,79,56,1.41,MX,1734502578
155,canico,32.6333,-16.85,19.35,82,20,8.23,PT,1734502579
156,nar'yan-mar,67.6713,53.087,-18.07,85,59,4.3,RU,1734502580
157,labytnangi,66.6572,66.4183,-27.72,97,13,1.73,RU,1734502581
158,susuman,62.7833,148.1667,-17.91,97,100,1.38,RU,1734502583
159,roha,18.4333,73.1167,30.11,19,74,0.39,IN,1734502584
160,porto novo,6.4965,2.6036,24.9,78,9,1.46,BJ,1734502585
161,grebenskaya,43.5317,46.3733,4.02,86,100,7.32,RU,1734502586
162,carnarvon,-24.8667,113.6333,27.78,63,5,9.96,AU,1734502587
163,sheopur,25.6667,76.7,20.93,21,1,2.1,IN,1734502588
164,kapuskasing,49.4169,-82.4331,-6.95,86,100,3.09,CA,1734502590
165,dauphin,51.1494,-100.0502,-23.92,77,0,5.14,CA,1734502592
166,murray bridge,-35.1167,139.2667,23.06,38,0,7.65,AU,1734502593
167,palikir - national government center,6.9248,158.1611,26.47,94,100,1.54,FM,1734502536
168,santa marta,11.2408,-74.199,26.03,73,0,1.54,CO,1734502590
169,aragarcas,-15.8975,-52.2508,21.56,96,100,0.72,BR,1734502597
170,sturgeon bay,44.8342,-87.377,-0.8,80,100,2.06,US,1734502598
171,mount pearl,47.5166,-52.7813,8.97,94,100,11.83,CA,1734502600
172,piti village,13.4626,144.6933,29.61,83,40,7.2,GU,1734502601
173,sokolac,43.9397,18.8017,1.55,95,10,2.45,BA,1734502602
174,happy valley-goose bay,53.3168,-60.3315,2.17,87,75,5.66,CA,1734502510
175,arrifes,37.7667,-25.7,17.18,67,75,10.8,PT,1734502606
176,petropavlovsk-kamchatsky,53.0452,158.6483,1.33,55,75,8.0,RU,1734502607
177,woodward,36.4337,-99.3904,5.54,52,0,6.17,US,1734502608
178,road town,18.4167,-64.6167,25.79,77,56,9.64,VG,1734502405
179,okhotsk,59.3833,143.3,-17.37,99,100,7.64,RU,1734502611
180,norcasia,5.5778,-74.8852,19.77,97,98,1.78,CO,1734502612
181,neverkino,52.7854,46.7417,-3.19,93,100,4.32,RU,1734502613
182,gisborne,-38.6533,178.0042,16.77,92,100,10.57,NZ,1734502614
183,hadibu,12.65,54.0333,23.65,75,81,7.62,YE,1734502615
184,haiku-pauwela,20.9219,-156.3051,22.8,81,0,3.13,US,1734502617
185,karagay,58.2667,54.9368,-5.72,93,100,4.6,RU,1734502618
186,tuburan,6.6439,122.2736,27.31,79,35,1.9,PH,1734502619
187,al hazm,16.1641,44.7769,15.61,27,35,0.43,YE,1734502620
188,lages,-27.8161,-50.3261,14.32,94,75,1.98,BR,1734502621
189,isabela,6.7085,121.9711,31.03,77,44,1.21,PH,1734502622
190,onguday,50.75,86.15,-12.56,72,10,1.86,RU,1734502624
191,bandarbeyla,9.4942,50.8122,25.23,61,2,10.27,SO,1734502625
192,middelburg,-25.7751,29.4648,21.63,52,100,3.82,ZA,1734502626
193,san patricio,28.017,-97.5169,18.97,87,27,3.36,US,1734502627
194,maunabo,18.0072,-65.8993,25.1,87,73,4.59,PR,1734502628
195,guiratinga,-16.3494,-53.7583,21.27,93,100,0.84,BR,1734502629
196,punta alta,-38.8759,-62.0736,24.46,37,85,7.77,AR,1734502333
197,xining,36.6167,101.7667,-6.47,83,100,0.94,CN,1734502632
198,humaita,-7.5061,-63.0208,22.82,98,99,0.39,BR,1734502535
199,vilyuysk,63.7553,121.6247,-29.18,97,8,2.67,RU,1734502634
200,markala,13.7021,-6.0659,18.19,19,96,4.08,ML,1734502635
201,shulan,44.4167,126.95,-12.94,79,62,2.11,CN,1734502636
202,dunedin,-45.8742,170.5036,13.17,76,100,9.04,NZ,1734502638
203,isafjordur,66.0755,-23.124,-2.3,89,79,4.53,IS,1734502639
204,chonchi,-42.6128,-73.8092,11.18,92,98,2.21,CL,1734502523
205,baganga,7.5739,126.56,27.35,89,75,3.22,PH,1734502641
206,saudarkrokur,65.7461,-19.6394,-6.1,90,79,3.21,IS,1734502642
207,payson,40.0444,-111.7321,2.24,61,59,1.79,US,1734502643
208,touros,-5.1989,-35.4608,25.64,80,94,4.17,BR,1734502646
209,tual,-5.6667,132.75,28.9,79,100,7.5,ID,1734502647
210,walvis bay,-22.9575,14.5053,15.07,81,26,2.25,NA,1734502648
211,keflavik,64.0049,-22.5624,-0.76,100,20,2.57,IS,1734502649
212,bodo,67.28,14.405,-3.46,88,0,7.72,NO,1734502651
213,kuanda,56.3161,116.0806,-20.1,99,77,0.49,RU,1734502652
214,gebeit,21.0667,36.3167,18.29,79,17,2.11,SD,1734502653
215,ballina,-28.8667,153.5667,23.34,78,100,13.13,AU,1734502654
216,westport,41.1415,-73.3579,7.79,76,0,1.54,US,1734502584
217,basco,20.4487,121.9702,25.15,66,21,7.84,PH,1734502656
218,timimoun,29.2639,0.231,4.21,70,0,2.57,DZ,1734502659
219,malabar,-33.9667,151.25,22.65,54,40,10.8,AU,1734502660
220,borzya,50.3833,116.5167,-15.99,86,100,0.99,RU,1734502661
221,nantucket,41.2835,-70.0995,7.06,93,0,4.43,US,1734502662
222,ormara,25.2088,64.6357,21.31,38,16,3.27,PK,1734502664
223,mampong,7.0627,-1.4001,18.74,27,6,0.7,GH,1734502665
224,alvaraes,-3.2208,-64.8042,23.25,99,99,0.1,BR,1734502666
225,celestun,20.8667,-90.4,22.81,95,6,3.46,MX,1734502667
226,cidreira,-30.1811,-50.2056,19.25,84,7,3.92,BR,1734502445
227,port macquarie,-31.4333,152.9167,20.6,75,100,3.13,AU,1734502669
228,lamu,-2.2717,40.902,27.43,76,45,3.38,KE,1734502671
229,punta arenas,-53.15,-70.9167,7.06,70,20,9.77,CL,1734502492
230,big rapids,43.6981,-85.4837,0.04,86,100,0.0,US,1734502587
231,gustavsberg,59.3268,18.3898,-3.06,63,97,3.06,SE,1734502674
232,suances,43.4334,-4.0434,16.91,51,0,4.12,ES,1734502675
233,international falls,48.6011,-93.411,-10.48,84,100,0.89,US,1734502677
234,katsuura,35.1333,140.3,11.16,54,61,6.31,JP,1734502581
235,iskateley,67.6803,53.1512,-18.1,84,57,4.31,RU,1734502679
236,karratha,-20.7377,116.8463,36.74,42,96,6.18,AU,1734502680
237,shenjiamen,29.9576,122.298,9.66,57,38,10.23,CN,1734502681
238,kerikeri,-35.2268,173.9474,19.81,56,45,4.28,NZ,1734502684
239,poxoreo,-15.8372,-54.3892,22.17,93,100,1.29,BR,1734502685
240,yemva,62.59,50.8594,-12.63,95,100,3.48,RU,1734502686
241,kyabe,9.4515,18.9449,21.75,22,45,2.44,TD,1734502688
242,uzda,53.4627,27.2137,-0.11,88,60,5.22,BY,1734502689
243,luanda,-8.8368,13.2343,26.0,83,75,2.06,AO,1734502691
244,twon-brass,4.3151,6.2418,27.12,80,82,2.74,NG,1734502692
245,saint-philippe,-21.3585,55.7679,26.38,72,40,6.44,RE,1734502693
246,el tigre,8.8875,-64.2454,23.33,87,25,5.55,VE,1734502694
247,san lawrenz,36.0553,14.204,12.7,85,0,5.31,MT,1734502695
248,boca chica,18.4537,-69.6111,23.06,94,40,2.06,DO,1734502200
249,rio hato,8.3833,-80.1667,25.82,87,0,5.35,PA,1734502699
250,novyy urengoy,66.0833,76.6333,-17.8,98,86,3.1,RU,1734502637
251,resplendor,-19.3256,-41.2553,21.97,97,100,2.48,BR,1734502701
252,dzhalagash,45.0833,64.6667,0.2,76,99,6.08,KZ,1734502702
253,kailua-kona,19.6406,-155.9956,23.66,83,14,1.13,US,1734502704
254,sovetskaya gavan',48.9723,140.2878,-10.08,66,100,5.62,RU,1734502705
255,ataq,14.5377,46.8319,14.41,27,13,3.29,YE,1734502706
256,fortuna,40.5982,-124.1573,9.51,100,0,3.6,US,1734502707
257,camarinas,43.1311,-9.1817,14.79,93,99,11.4,ES,1734502708
258,bol'shoye murashkino,55.7826,44.7754,-13.32,94,70,5.31,RU,1734502709
259,la manga del mar menor,37.6413,-0.7165,10.58,87,0,1.54,ES,1734502711
260,axim,4.8699,-2.2405,25.63,88,12,1.12,GH,1734502576
261,champerico,14.3,-91.9167,25.15,78,4,2.88,GT,1734502713
262,knyaze-volkonskoye,48.4642,135.4567,-16.81,87,35,3.2,RU,1734502714
263,st. john's,47.5649,-52.7093,9.43,92,100,11.83,CA,1734502645
264,port lincoln,-34.7333,135.8667,20.01,53,4,4.97,AU,1734502716
265,nieuw amsterdam,5.8833,-55.0833,24.39,93,75,3.29,SR,1734502718
266,fecamp,49.7579,0.3746,12.51,89,100,11.46,FR,1734502719
267,saint-pierre,-21.3393,55.4781,29.82,54,0,3.6,RE,1734502720
268,saint croix,17.7397,-64.7388,25.25,89,75,6.17,VI,1734502721
269,qaqortoq,60.7167,-46.0333,-5.69,85,100,7.29,GL,1734502722
270,nemuro,43.3236,145.575,-2.11,53,7,8.6,JP,1734502723
271,ketchikan,55.3422,-131.6461,1.26,90,100,3.13,US,1734502725
272,yanchep,-31.55,115.6833,26.27,58,0,7.53,AU,1734502726
273,broken hill,-31.95,141.4333,28.53,13,0,8.8,AU,1734502727
274,lerwick,60.1545,-1.1494,9.7,94,100,11.84,GB,1734502728
275,chul'man,56.8479,124.9104,-17.93,91,100,4.76,RU,1734502729
276,makawao,20.8569,-156.3131,20.69,81,0,0.0,US,1734502731
277,kurchum,48.5722,83.6542,-12.62,75,4,0.67,KZ,1734502732
278,arraial do cabo,-22.9661,-42.0278,23.09,86,84,4.55,BR,1734502733
279,seryshevo,51.0933,128.3786,-15.17,93,92,0.71,RU,1734502734
280,inarajan village,13.2736,144.7484,29.66,84,36,9.03,GU,1734502735
281,pacific grove,36.6177,-121.9166,12.5,87,0,2.68,US,1734502736
282,georgetown,5.4112,100.3354,32.97,53,20,4.63,MY,1734502738
283,vetluzhskiy,58.3902,45.4654,-6.41,94,99,3.8,RU,1734502739
284,bredasdorp,-34.5322,20.0403,18.68,52,35,1.33,ZA,1734502740
285,wad medani,14.4012,33.5199,26.44,35,48,5.18,SD,1734502741
286,kununurra,-15.7667,128.7333,35.99,46,90,2.57,AU,1734502742
287,constantia,44.1833,28.65,4.38,76,3,4.93,RO,1734502744
288,bereznik,62.8551,42.7072,-13.88,96,100,1.92,RU,1734502745
289,malanje,-9.5402,16.341,18.62,97,99,1.43,AO,1734502746
290,dudinka,69.4058,86.1778,-7.32,94,100,8.99,RU,1734502747
291,new norfolk,-42.7826,147.0587,19.4,32,2,0.25,AU,1734502749
292,alice springs,-23.7,133.8833,37.75,16,16,8.23,AU,1734502751
293,kingston,17.997,-76.7936,26.53,83,40,3.6,JM,1734502580
294,saldanha,-33.0117,17.9442,17.77,69,39,8.53,ZA,1734502753
295,zamora,-4.0692,-78.9567,20.13,100,99,0.72,EC,1734502754
296,hammerfest,70.6634,23.6821,-6.75,79,40,5.14,NO,1734502755
297,bexhill-on-sea,50.8502,0.471,13.33,75,97,14.99,GB,1734502757
298,arkhangel'sk,64.5401,40.5433,-15.94,85,100,1.0,RU,1734502603
299,tamanrasset,22.785,5.5228,6.95,36,0,8.75,DZ,1734502759
300,gournay-en-bray,49.4828,1.7247,9.02,93,89,7.85,FR,1734502760
301,itamaraca,-7.7478,-34.8256,25.8,79,53,4.29,BR,1734502761
302,santana,-0.0583,-51.1817,26.1,94,20,1.54,BR,1734502762
303,kendari,-3.945,122.4989,33.12,53,88,3.6,ID,1734502764
304,dhidhdhoo,6.8833,73.1,28.1,76,18,4.49,MV,1734502765
305,tobruk,32.0836,23.9764,14.83,64,1,2.93,LY,1734502538
306,remire-montjoly,4.9167,-52.2667,23.02,100,40,0.51,GF,1734502768
307,floresta,-8.6011,-38.5686,24.48,69,84,4.15,BR,1734502769
308,ambodifotatra,-16.9833,49.85,24.03,100,100,5.14,MG,1734502591
309,ati,13.2154,18.3353,18.52,24,99,3.14,TD,1734502773
310,sinop,41.7711,34.8709,4.52,81,63,3.74,TR,1734502774
311,muynoq,43.7683,59.0214,3.12,77,56,6.24,UZ,1734502775
312,sao tome,0.3365,6.7273,26.66,82,82,3.11,ST,1734502777
313,peniche,39.3558,-9.3811,15.31,90,88,6.94,PT,1734502778
314,novodvinsk,64.4165,40.8122,-16.14,94,100,1.7,RU,1734502641
315,smithers,54.7804,-127.1743,-7.82,93,100,2.06,CA,1734502780
316,ouani,-12.1322,44.4258,27.43,75,63,1.57,KM,1734502781
317,akjoujt,19.6969,-14.4164,18.42,24,100,6.89,MR,1734502782
318,nevada,39.2502,-116.7512,-0.76,66,64,0.82,US,1734502745
319,mount gambier,-37.8333,140.7667,19.02,49,0,5.71,AU,1734502785
320,koesan,36.8108,127.7947,-0.45,32,8,4.04,KR,1734502786
321,bull savanna,17.8868,-77.5902,23.03,81,0,1.49,JM,1734502787
322,tianshui,34.5439,105.6897,4.22,31,100,6.35,CN,1734502788
323,yuzhno-kurilsk,44.0306,145.8556,-2.09,60,85,9.93,RU,1734502789
324,capitan bado,-23.2667,-55.5333,18.6,71,53,2.69,PY,1734502791
325,mil'kovo,55.6078,37.7956,-7.92,58,100,6.62,RU,1734502792
326,nikolayevsk-on-amure,53.1406,140.73,-16.8,92,83,3.23,RU,1734502793
327,nuku'alofa,-21.1333,-175.2,27.19,89,20,5.66,TO,1734502794
328,nunspeet,52.3667,5.7667,9.42,80,100,3.13,NL,1734502795
329,leava,-14.3,-178.1667,28.42,73,98,5.35,WF,1734502796
330,poronaysk,49.2167,143.1167,-9.16,76,99,4.41,RU,1734502643
331,rockland,41.1668,-74.0496,6.55,74,89,1.34,US,1734502799
332,tafuna,-14.3358,-170.72,28.97,84,75,4.63,AS,1734502552
333,taiyuan,37.8694,112.5603,0.92,19,0,3.0,CN,1734502801
334,aconibe,1.2968,10.9369,20.45,95,96,1.34,GQ,1734502802
335,ta`u,-14.2336,-169.5144,28.47,79,100,6.39,AS,1734502803
336,saipan,15.1355,145.701,28.39,88,75,6.69,MP,1734502805
337,northam,51.0333,-4.2167,13.15,83,83,15.45,GB,1734502807
338,puerto deseado,-47.7503,-65.8938,12.18,73,98,8.05,AR,1734502579
339,chibougamau,49.9168,-74.3659,-2.21,86,100,3.6,CA,1734502809
340,manokwari,-0.8667,134.0833,28.14,82,75,5.46,ID,1734502810
341,karatau,43.1667,70.4667,2.85,49,100,8.16,KZ,1734502576
342,khovd,48.0056,91.6419,-15.05,76,8,1.55,MN,1734502813
343,valparaiso,-33.0393,-71.6273,12.8,87,40,1.54,CL,1734502801
344,kiunga,-6.1219,141.2906,27.76,85,100,1.79,PG,1734502816
345,peace river,56.2501,-117.286,-25.83,76,0,3.6,CA,1734502818
346,vila franca do campo,37.7167,-25.4333,18.27,99,83,8.99,PT,1734502819
347,namtsy,62.7161,129.6658,-24.95,98,100,1.71,RU,1734502820
348,port blair,11.6667,92.75,30.02,70,40,3.6,IN,1734502821
349,isla mujeres,21.2311,-86.731,25.05,83,7,3.55,MX,1734502822
350,xichang,27.8964,102.2634,8.67,79,99,1.12,CN,1734502595
351,mittegrossefehn,53.4,7.55,7.34,65,75,6.17,DE,1734502825
352,carauari,-4.8828,-66.8958,22.09,96,99,0.74,BR,1734502826
353,lotoshino,56.2267,35.6414,-10.85,87,100,6.56,RU,1734502827
354,ain sukhna,29.6002,32.3167,15.1,88,99,2.42,EG,1734502828
355,santiago do cacem,38.0169,-8.6948,14.47,80,83,2.35,PT,1734502829
356,tobelo,1.7284,128.0095,28.61,77,86,2.07,ID,1734502830
357,sabang,5.8933,95.3214,28.27,76,90,7.58,ID,1734502593
358,cascavel,-24.9558,-53.4553,15.56,75,0,0.85,BR,1734502592
359,greymouth,-42.4667,171.2,17.17,64,9,2.6,NZ,1734502834
360,magadan,59.5667,150.8,-10.56,81,100,5.88,RU,1734502629
361,lazaro cardenas,17.9583,-102.2,24.31,89,18,1.95,MX,1734502836
362,motru,44.8033,22.9719,3.71,85,4,1.29,RO,1734502837
363,george town,5.4112,100.3354,32.97,53,20,4.63,MY,1734502838
364,maloye ganyushkino,46.6,49.2667,4.16,71,97,11.38,KZ,1734502840
365,juazeirinho,-6.8167,-38.05,26.01,64,96,5.18,BR,1734502841
366,takoradi,4.8845,-1.7554,25.64,87,13,1.93,GH,1734502842
367,tarakan,3.3,117.6333,30.72,74,40,3.09,ID,1734502559
368,norilsk,69.3535,88.2027,-9.76,92,100,6.46,RU,1734502844
369,tanjung selor,2.8372,117.3642,24.78,96,100,0.76,ID,1734502845
370,gloucester point,37.254,-76.4969,12.19,91,100,0.0,US,1734502847
371,jiutai,44.1525,125.8328,-8.81,67,7,2.14,CN,1734502848
372,eutin,54.1333,10.6167,7.04,93,99,7.44,DE,1734502849
373,tyukhtet,56.5389,89.3011,-12.84,80,59,4.26,RU,1734502850
374,selfoss,63.9331,-20.9971,-5.51,93,47,2.0,IS,1734502851
375,elko,41.0002,-115.5012,1.47,73,80,0.45,US,1734502654
376,eyl,7.9803,49.8164,26.74,44,5,10.49,SO,1734502854
377,babura,12.7731,9.0158,13.3,29,98,3.96,NG,1734502855
378,sipovo,44.2814,17.0839,5.87,66,46,2.35,BA,1734502856
379,n'zeto,-7.2312,12.8666,25.84,85,93,1.5,AO,1734502857
380,nizhniy ingash,56.2,96.53,-10.69,83,9,2.65,RU,1734502858
381,howrah,22.5892,88.3103,25.0,47,40,3.09,IN,1734502860
382,tianpeng,30.9866,103.9393,11.17,49,0,3.03,CN,1734502592
383,villa independencia,-31.4559,-64.5132,21.9,66,81,1.32,AR,1734502862
384,coquimbo,-29.9533,-71.3436,13.85,94,20,2.06,CL,1734502705
385,miracema do tocantins,-9.5618,-48.3967,21.3,96,100,1.39,BR,1734502864
386,labrador city,52.9463,-66.9114,-0.46,81,100,5.36,CA,1734502865
387,flying fish cove,-10.4217,105.6791,28.82,83,75,3.09,CX,1734502867
388,goure,13.9835,10.2704,13.04,29,100,4.71,NE,1734502868
389,pisco,-13.7,-76.2167,19.45,82,0,2.06,PE,1734502869
390,novyy urgal,51.0736,132.5642,-23.55,88,79,0.6,RU,1734502870
391,balta,47.9355,29.6198,4.11,82,16,6.49,UA,1734502871
392,ingeniero jacobacci,-41.3427,-69.5448,14.73,59,0,8.47,AR,1734502872
393,hancheng,32.5186,112.3522,7.97,25,97,4.25,CN,1734502874
394,kayenta,36.7278,-110.2546,3.33,36,71,2.26,US,1734502875
395,bromma,59.34,17.94,-3.08,86,0,1.03,SE,1734502660
396,conway,35.0887,-92.4421,11.81,96,100,2.57,US,1734502877
397,fort bragg,35.139,-79.006,15.91,96,100,0.0,US,1734502778
398,garachico,28.7781,-17.7646,19.06,43,0,6.69,ES,1734502879
399,tenkodogo,11.78,-0.3697,19.01,18,0,5.27,BF,1734502881
400,baymak,52.5933,58.3225,-7.9,98,85,3.35,RU,1734502882
401,akureyri,65.6835,-18.0878,-4.04,93,75,1.54,IS,1734502801
402,berdigestyakh,62.0989,126.6992,-23.26,94,100,4.24,RU,1734502884
403,jinghong,21.991,100.7341,23.59,57,58,1.86,CN,1734502885
404,firuzabad,28.8438,52.5707,9.97,19,0,2.33,IR,1734502886
405,olyokminsk,60.3736,120.4264,-18.51,90,26,3.58,RU,1734502887
406,suva,-18.1416,178.4415,26.71,89,75,2.57,FJ,1734502889
407,puerto baquerizo moreno,-0.9,-89.6,22.23,87,30,3.63,EC,1734502890
408,merizo village,13.2658,144.6691,29.31,84,39,9.03,GU,1734502891
409,eraan,9.0629,117.7016,28.98,75,40,3.49,PH,1734502687
410,yelizovo,53.1873,158.3805,2.08,55,75,8.0,RU,1734502893
411,polyarnyy,69.1989,33.4478,-16.1,86,100,3.0,RU,1734502894
412,tura,25.5198,90.2201,24.74,38,65,1.31,IN,1734502896
413,letlhakane,-21.4167,25.5833,27.12,53,98,2.73,BW,1734502674
414,great falls,47.5002,-111.3008,-6.75,97,100,2.57,US,1734502898
415,holualoa,19.6228,-155.9522,21.59,82,20,0.94,US,1734502899
416,codrington,-38.2667,141.9667,17.65,58,0,7.08,AU,1734502900
417,saint george,37.1041,-113.5841,6.9,33,0,0.0,US,1734502629
418,zhezqazghan,47.7833,67.7667,-5.68,93,100,8.0,KZ,1734502904
419,atbasar,51.8,68.3333,-7.25,92,100,5.64,KZ,1734502905
420,brownwood,31.7093,-98.9912,17.76,87,40,2.06,US,1734502906
421,dongola,19.1667,30.4833,20.43,37,8,5.24,SD,1734502908
422,mossendjo,-2.9506,12.7261,21.6,98,99,0.71,CG,1734502909
423,matthew town,20.95,-73.6667,25.47,84,41,8.16,BS,1734502910
424,khorramabad,33.4878,48.3558,2.79,56,0,0.0,IR,1734502911
425,altamira,-3.2033,-52.2064,23.04,98,95,0.26,BR,1734502819
426,igarka,67.4667,86.5833,-8.07,93,100,9.13,RU,1734502913
427,rudbar,30.15,62.6,7.36,19,51,1.63,AF,1734502915
428,freetown,8.484,-13.2299,23.38,78,53,1.51,SL,1734502616
429,aykhal,66.0,111.5,-23.34,89,51,3.73,RU,1734502917
430,nadym,65.5333,72.5167,-27.38,100,16,2.12,RU,1734502918
431,lichinga,-13.3128,35.2406,21.05,78,40,8.75,MZ,1734502919
432,goz beida,13.95,20.55,20.74,19,96,2.37,TD,1734502920
433,vilyuchinsk,52.9306,158.4028,2.15,84,100,4.83,RU,1734502922
434,sant'antioco,39.0664,8.4522,10.08,85,4,3.05,IT,1734502923
435,vernon,50.2581,-119.2691,2.64,91,100,0.0,CA,1734502650
436,dolgorukovo,52.3195,38.3453,-5.09,75,96,7.66,RU,1734502925
437,chiang kham,19.5233,100.3,29.56,56,93,1.69,TH,1734502926
438,gazojak,41.1875,61.4036,2.28,79,63,5.32,TM,1734502693
439,paso de los toros,-32.8167,-56.5167,15.17,85,0,5.49,UY,1734502929
440,lusambo,-4.9667,23.45,20.65,99,100,0.45,CD,1734502930
441,kretinga,55.8758,21.2508,-2.14,93,0,1.03,LT,1734502931
442,gokceada,40.2011,25.909,5.68,100,0,1.54,TR,1734502932
443,mogadishu,2.0371,45.3438,27.1,69,49,7.45,SO,1734502933
444,forster,-32.1667,152.5167,19.1,90,100,7.55,AU,1734502935
445,grand falls-windsor,48.9332,-55.6649,6.62,91,100,7.02,CA,1734502936
446,visby,57.6409,18.296,2.12,100,0,3.6,SE,1734502937
447,dahab,28.501,34.5134,19.4,29,99,5.39,EG,1734502938
448,gurmatkal,16.8667,77.4,25.44,39,80,2.58,IN,1734502854
449,zara,44.1197,15.2422,1.34,100,69,1.03,HR,1734502805
450,kokopo,-4.352,152.2633,29.31,70,99,3.87,PG,1734502943
451,maquoketa,42.0689,-90.6657,-0.47,95,100,2.0,US,1734502944
452,nueva gerona,21.8833,-82.8,23.75,89,22,5.68,CU,1734502945
453,kyaikkami,16.08,97.5675,28.9,55,16,0.36,MM,1734502946
454,kyzylorda,44.8528,65.5092,0.01,80,40,7.0,KZ,1734502947
455,robore,-18.3333,-59.75,22.7,83,26,1.82,BO,1734502949
456,quellon,-43.1167,-73.6167,10.18,90,95,4.68,CL,1734502950
457,kavarna,43.4333,28.3333,6.36,84,0,5.14,BG,1734502951
458,llorente,11.4119,125.5458,24.82,92,100,4.95,PH,1734502952
459,santo antonio dos olivais,40.2082,-8.401,10.58,84,61,2.36,PT,1734502953
460,al kharj,24.155,47.3346,14.32,12,51,0.56,SA,1734502803
461,kapa'a,22.0752,-159.319,24.18,88,20,4.12,US,1734502956
462,bardai,11.65,7.2333,12.62,25,100,5.32,NG,1734502957
463,watsa,3.0372,29.5355,23.84,49,65,0.74,CD,1734502958
464,ben gardane,33.1378,11.2197,12.84,76,27,4.22,TN,1734502959
465,achacachi,-16.05,-68.6833,5.98,81,63,1.65,BO,1734502960
466,jayapura,-2.5333,140.7,26.66,96,100,5.08,ID,1734502759
467,dapa,9.7594,126.0531,24.77,91,100,0.83,PH,1734502964
468,gamba,-2.65,10.0,25.33,86,69,0.68,GA,1734502965
469,domna,51.8971,113.1573,-17.91,71,40,0.0,RU,1734502966
470,extrema,-22.8547,-46.3183,14.24,99,29,1.69,BR,1734502967
471,villa mercedes,-33.6757,-65.4578,17.14,90,100,1.59,AR,1734502697
472,sheridan,44.8333,-106.9173,-2.68,82,31,1.34,US,1734502970
473,burang,30.25,81.1667,-2.58,18,0,2.23,CN,1734502971
474,kirksville,40.1948,-92.5833,2.97,78,100,7.72,US,1734502972
475,taoudenni,22.6783,-3.9836,12.19,41,0,8.46,ML,1734502973
476,kalianget,-7.05,113.9333,28.46,77,95,0.51,ID,1734502747
477,porangatu,-13.4408,-49.1486,22.47,93,100,0.92,BR,1734502975
478,thunder bay,48.4001,-89.3168,-6.01,79,75,3.09,CA,1734502887
479,bakhmach,51.1808,32.7569,0.43,79,63,8.23,UA,1734502978
480,canutama,-6.5339,-64.3831,23.18,94,93,0.73,BR,1734502979
481,mount isa,-20.7333,139.5,39.87,21,40,7.72,AU,1734502980
482,jalai nur,49.45,117.7,-13.81,82,100,1.63,CN,1734502981
483,la punta,-33.1837,-66.3127,16.64,93,100,5.05,AR,1734502982
484,toamasina,-18.1667,49.3833,30.0,66,40,1.54,MG,1734502984
485,qoryooley,1.7878,44.53,28.58,55,10,6.84,SO,1734502985
486,castlegar,49.2998,-117.6689,2.94,99,100,0.82,CA,1734502986
487,amstetten,48.1229,14.8721,5.01,93,97,0.53,AT,1734502987
488,livingston,55.9029,-3.5226,12.42,88,40,10.8,GB,1734502775
489,zhanjiang,21.2815,110.3427,21.36,33,100,2.69,CN,1734502989
490,dobrinka,52.1653,40.4731,-5.46,82,98,7.86,RU,1734502991
491,monrovia,6.3005,-10.7969,25.93,84,46,0.87,LR,1734502931
492,hafar al-batin,28.4328,45.9708,7.32,24,0,4.12,SA,1734502993
493,songea,-10.6833,35.65,23.1,67,100,3.13,TZ,1734502994
494,polovinnoye,54.7914,65.9864,-6.98,94,100,6.19,RU,1734502995
495,kourou,5.1552,-52.6478,23.84,96,100,1.97,GF,1734502996
496,kyelang,32.5833,77.0333,-3.14,16,98,2.17,IN,1734502998
497,santa terezinha,-29.9002,-50.0904,19.8,83,59,4.31,BR,1734502999
498,santa cruz,-17.8,-63.1667,23.7,88,75,3.6,BO,1734502861
499,arteche,12.2645,125.4048,25.32,89,100,4.71,PH,1734503001
500,mejit,10.2753,170.8646,27.36,81,32,10.63,MH,1734503002
501,la passe,45.5549,-0.8967,10.1,82,86,3.24,FR,1734503004
502,karaton,-6.3424,106.1045,30.21,60,65,3.18,ID,1734503005
503,sisimiut,66.9395,-53.6735,-9.24,93,100,1.16,GL,1734503006
504,natal,-5.795,-35.2094,25.12,88,20,1.54,BR,1734503007
505,mahibadhoo,3.7833,72.9667,28.28,76,100,7.02,MV,1734503008
506,el calafate,-50.3408,-72.2768,7.2,58,27,5.21,AR,1734502838
507,manado,1.487,124.8455,32.43,66,20,2.57,ID,1734503011
508,acarau,-2.8856,-40.12,27.03,75,55,6.67,BR,1734502816
509,jonesboro,35.8423,-90.7043,11.87,93,100,0.0,US,1734503013
510,prince rupert,54.3161,-130.3201,5.05,70,100,11.32,CA,1734503014
511,sungai raya,0.7,108.9,29.68,70,96,2.57,ID,1734503015
512,veraval,20.9,70.3667,24.96,23,3,1.99,IN,1734503016
513,naze,28.3667,129.4833,13.51,53,87,4.96,JP,1734503018
514,dzhankoy,45.7167,34.4,5.05,77,3,5.44,UA,1734503020
515,fukuecho,32.6881,128.8419,8.2,57,75,8.23,JP,1734503021
516,portland,45.5234,-122.6762,14.63,80,100,6.26,US,1734502910
517,troitskoye,52.9821,84.6757,-12.84,82,27,2.59,RU,1734503023
518,tadine,-21.55,167.8833,25.81,64,94,3.02,NC,1734503025
519,rio blanco,18.8333,-97.15,14.59,93,68,1.03,MX,1734503026
520,malango,-2.9627,119.9001,25.3,86,83,1.05,ID,1734503027
521,visakhapatnam,17.69,83.2093,25.94,61,100,2.06,IN,1734503028
522,impfondo,1.6381,18.0667,24.94,70,87,1.31,CG,1734503029
523,zaozersk,69.4005,32.4476,-18.36,89,99,3.48,RU,1734503030
524,conceicao da barra,-18.5933,-39.7322,22.83,98,99,0.96,BR,1734503032
525,longboat key,27.4125,-82.659,20.05,94,0,2.57,US,1734503033
526,bayji,34.9311,43.487,9.12,55,0,2.94,IQ,1734503034
527,urumqi,43.801,87.6005,-14.47,85,9,1.0,CN,1734503035
528,parauna,-16.9478,-50.4486,20.37,91,100,1.16,BR,1734503036
529,lospalos,-8.5186,127.0025,31.27,56,100,1.93,TL,1734503038
530,par naogaon,24.8029,88.9508,24.23,38,82,2.75,BD,1734503039
531,acapulco de juarez,16.8634,-99.8901,25.9,83,20,1.03,MX,1734503040
532,aflou,34.1128,2.1023,3.27,33,29,1.45,DZ,1734503041
533,quelimane,-17.8786,36.8883,31.97,62,20,5.14,MZ,1734503042
534,karoi,-16.8099,29.6925,21.12,81,100,3.58,ZW,1734503043
535,minot air force base,48.4209,-101.3391,-15.9,71,0,6.69,US,1734503045
536,lubao,14.9167,120.55,29.84,56,86,5.12,PH,1734503046
537,phalaborwa,-23.943,31.1411,28.76,52,89,3.08,ZA,1734503047
538,nadi,-17.8,177.4167,27.0,78,75,4.63,FJ,1734503048
539,crane,31.3974,-102.3501,14.51,73,1,3.71,US,1734503049
540,carbonear,47.7332,-53.2148,10.08,95,100,12.24,CA,1734503052
541,san agustin acasaguastlan,14.95,-89.9667,16.77,97,34,1.18,GT,1734503053
542,limon,10.0,-83.0333,24.8,82,39,1.81,CR,1734503054
543,ondangwa,-17.9167,15.95,25.42,17,92,3.55,NA,1734503055
544,skeldon,5.8833,-57.1333,23.92,95,67,2.55,GY,1734503056
545,segou,13.4317,-6.2157,18.09,18,89,3.85,ML,1734503058
546,kattivakkam,13.2167,80.3167,25.05,99,100,7.23,IN,1734503059
547,zouerate,22.7187,-12.4521,12.75,24,78,8.01,MR,1734503060
548,wajir,1.7471,40.0573,27.57,59,91,5.15,KE,1734502811
549,paradip garh,20.3167,86.6167,26.01,43,81,4.05,IN,1734503062
550,harstad,68.799,16.5293,-4.36,95,35,2.87,NO,1734503063
551,boca do acre,-8.7522,-67.3978,22.15,98,85,1.05,BR,1734503064
552,tralee,52.2704,-9.7026,10.14,93,40,5.14,IE,1734503066
553,rikaze,29.25,88.8833,5.9,12,0,2.25,CN,1734503067
554,okeechobee,27.2439,-80.8298,18.9,94,1,2.73,US,1734503068
555,badiyah,22.45,58.8,20.22,53,12,1.32,OM,1734503069
556,pauini,-7.7136,-66.9764,22.24,98,82,1.07,BR,1734503070
557,preobrazheniye,42.9019,133.9064,-6.11,33,0,2.07,RU,1734503072
558,cambria,35.5641,-121.0808,14.47,53,41,1.79,US,1734503073
559,altai,46.3722,96.2583,-15.02,79,45,0.9,MN,1734503074
560,cidade velha,14.9167,-23.6167,23.26,83,75,7.2,CV,1734503075
561,cefalu,38.0386,14.0229,11.53,70,33,1.79,IT,1734503077
562,anloga,5.7947,0.8973,26.9,80,22,2.74,GH,1734503079
563,truckee,39.328,-120.1833,4.0,81,61,0.45,US,1734503080
564,el porvenir,13.7617,-87.3458,21.18,83,0,2.68,HN,1734503081
565,grand-bassam,5.2118,-3.7388,25.98,88,32,1.09,CI,1734503082
